name,repair_shop_type,repair_scope,contac,region,address,latitude,longitude,available_time
운천점 블루핸즈,현대,고전압배터리 제외 전 작업 수리 가능,043-275-3868,충청북도,청주시 흥덕구 1순환로 389,36.6555544941012,127.472693442168,N
지북점 블루핸즈,현대,고전압배터리 제외 전 작업 수리 가능,043-287-7804,충청북도,청주시 상당구 목련로 213-37,36.60743102611196,127.52428845660889,08:30 ~ 18:30
진천점 블루핸즈,현대,고전압배터리 제외 전 작업 수리 가능,043-533-6792,대구광역시,달서구 상화로 167,35.8101019976124,128.532159113781,08:30 ~ 18:30
진천현대서비스,현대,고전압배터리 제외 전 작업 수리 가능,043-533-5386,충청북도,진천군 진천읍 문진로 1407,36.85149060217856,127.42738599616138,N
청전동부점 블루핸즈,현대,고전압배터리 제외 전 작업 수리 가능,043-644-8160,충청북도,제천시 용두천로 344,37.1557312069325,128.21789041556,08:30 ~ 19:00
청전점 블루핸즈,현대,고전압배터리 제외 전 작업 수리 가능,043-653-2277,충청북도,제천시 청전대로6길 2,37.1466197483829,128.205957580252,09:00 ~ 18:00
탑동점 블루핸즈,현대,고전압배터리 제외 전 작업 수리 가능,043-235-8201,충청북도,청주시 상당구 중고개로 364,36.6316133262008,127.500924800926,N
현대남청주서비스(주),현대,고전압배터리 제외 전 작업 수리 가능,043-292-8204,충청북도,청주시 서원구 남이면 청남로 1817,36.59758623802227,127.47210042433754,08:30 ~ 18:00
현대자동차오송서비스(주),현대,고전압배터리 제외 전 작업 수리 가능,043-232-0880,충청북도,청주시 흥덕구 강내면 가로수로 485,36.62380117259649,127.35343257369964,09:00 ~ 18:00
현대자동차음성서비스,현대,고전압배터리 제외 전 작업 수리 가능,043-883-1771,충청북도,음성군 금왕읍 무극로 145,36.9891491174445,127.577048594033,08:30 ~ 18:00
현대자동차증평서비스,현대,고전압배터리 제외 전 작업 수리 가능,043-838-2044,충청북도,증평군 증평읍 두름로 113,36.7810668437213,127.595268006942,08:30 ~ 18:00
호암남부점 블루핸즈,현대,고전압배터리 제외 전 작업 수리 가능,043-844-9300,충청북도,충주시 원호암4길 26,36.955188868106,127.937674815336,N
새한자동차공업사 블루핸즈,현대,고전압배터리 제외 전 작업 수리 가능,033-671-7740,강원특별자치도,양양군 양양읍 남문1길 3,38.0761052777674,128.624854768801,N
(주)경기자동차공업사 블루핸즈,현대,고전압배터리 제외 전 작업 수리 가능,031-453-2777,경기도,안양시 동안구 시민대로383번길 23,37.3975972596704,126.972515998767,09:00 ~ 18:00
(주)고잔점 블루핸즈,현대,고전압배터리 제외 전 작업 수리 가능,031-484-8572,경기도,안산시 단원구 중앙대로 951,37.316900376025,126.84241141212,N
(주)궁내점 블루핸즈,현대,고전압배터리 제외 전 작업 수리 가능,031-712-6073,경기도,성남시 분당구 대왕판교로 301,37.3707461513659,127.101366428242,08:30 ~ 17:00
(주)동부현대모터스,현대,고전압배터리 제외 전 작업 수리 가능,031-764-8181,경기도,파주시 문산읍 우계로 430-13,37.8582182864383,126.796694002755,08:30 ~ 18:00
동홍점 블루핸즈,현대,고전압배터리 제외 전 작업 수리 가능,064-763-1475,제주특별자치도,서귀포시 516로 103,33.2629625741963,126.582765130784,08:30 ~ 18:00
삼화점 블루핸즈,현대,고전압배터리 제외 전 작업 수리 가능,064-723-0337,제주특별자치도,제주시 연삼로 910,33.5119024709526,126.583184386437,N
서귀점 블루핸즈,현대,고전압배터리 제외 전 작업 수리 가능,064-733-4004,제주특별자치도,서귀포시 정방로 25,33.246512608243954,126.56865508687665,N
성산점 블루핸즈,현대,고전압배터리 제외 전 작업 수리 가능,064-784-8204,제주특별자치도,서귀포시 성산읍 서성일로 1194,33.446047277553475,126.90612782769134,N
세기자동차공업사 블루핸즈,현대,고전압배터리 제외 전 작업 수리 가능,064-713-9118,제주특별자치도,제주시 서광로 77,33.500448801475244,126.5041621833586,09:00 ~ 18:00
아라동부점 블루핸즈,현대,고전압배터리 제외 전 작업 수리 가능,064-722-7982,제주특별자치도,제주시 간월동로 67,33.4882410319654,126.549192640513,N
아라점 블루핸즈,현대,고전압배터리 제외 전 작업 수리 가능,064-759-8272,제주특별자치도,제주시 아봉로 11,33.478420793249,126.545228306627,N
연동점 블루핸즈,현대,고전압배터리 제외 전 작업 수리 가능,064-711-3132,제주특별자치도,제주시 신대로21길 34-1,33.4818499839171,126.500154915583,N
외도점 블루핸즈,현대,고전압배터리 제외 전 작업 수리 가능,064-743-3655,제주특별자치도,제주시 우평로 345-8,33.4834515173414,126.430037342328,08:30 ~ 18:30
일도점 블루핸즈,현대,고전압배터리 제외 전 작업 수리 가능,064-757-4594,제주특별자치도,제주시 동광로18길 12,33.5080779559233,126.541835872857,08:30 ~ 17:30
천지자동차공업사 블루핸즈,현대,고전압배터리 제외 전 작업 수리 가능,064-732-0070,제주특별자치도,서귀포시 토평공단로139번길 6,33.2938300516821,126.581505996254,08:00 ~ 18:00
한림점 블루핸즈,현대,고전압배터리 제외 전 작업 수리 가능,064-796-6868,제주특별자치도,제주시 한림읍 일주서로 5697,33.4358041409682,126.277744712103,N
화북점 블루핸즈,현대,고전압배터리 제외 전 작업 수리 가능,064-722-7285,제주특별자치도,제주시 청풍남2길 3,33.51805585941214,126.56458091695364,08:30 ~ 18:00
(주)남부현대모터스,현대,고전압배터리 제외 전 작업 수리 가능,041-564-8000,충청남도,천안시 동남구 광풍로 1765,36.77671276306107,127.14248140403626,08:30 ~ 18:00
(주)남부현대서비스,현대,고전압배터리 제외 전 작업 수리 가능,041-668-1188,경기도,오산시 가장로534번길 17,37.15856146384776,127.03951748564369,09:00 ~ 18:00
(주)동부현대서비스,현대,고전압배터리 제외 전 작업 수리 가능,041-522-1110,경기도,파주시 문산읍 우계로 430-13,37.8582182864383,126.796694002755,08:30 ~ 18:00
계룡현대서비스,현대,고전압배터리 제외 전 작업 수리 가능,042-841-1111,충청남도,계룡시 두마면 왕대로 99,36.25879624171365,127.27888314454565,09:00 ~ 18:00
남천안현대서비스(주),현대,고전압배터리 제외 전 작업 수리 가능,041-578-5533,충청남도,천안시 동남구 천안천변길 79-27,36.78360454462344,127.11771355319117,08:30 ~ 18:30
내포현대서비스(주),현대,고전압배터리 제외 전 작업 수리 가능,041-630-6800,충청남도,홍성군 홍북읍 홍북로453번길 50,36.6509593630165,126.689835286526,N
논산현대서비스,현대,고전압배터리 제외 전 작업 수리 가능,041-734-0797,충청남도,논산시 채운면 계백로 608,36.1759830458813,127.061603141369,09:00 ~ 18:00
보령현대서비스,현대,고전압배터리 제외 전 작업 수리 가능,041-931-5225,충청남도,보령시 신대목재길 6,36.3177751582956,126.537697118537,N
북천안현대서비스(주),현대,고전압배터리 제외 전 작업 수리 가능,041-523-8204,충청남도,천안시 서북구 신당새터2길 28,36.8510002547454,127.158165457586,N
서산현대서비스,현대,고전압배터리 제외 전 작업 수리 가능,041-665-0611,충청남도,서산시 수석순환로 5,36.7816744712317,126.497348626607,N
서일자동차정비(주) 블루핸즈,현대,고전압배터리 제외 전 작업 수리 가능,041-555-1641,충청남도,천안시 서북구 두정공단1길 143,36.8385558750217,127.154139811281,08:40 ~ 18:00
서천점 블루핸즈,현대,고전압배터리 제외 전 작업 수리 가능,041-952-4984,경기도,용인시 기흥구 서그내로53번길 3-29,37.2429368208945,127.07640004812,08:30 ~ 17:30
성일자동차공업사 블루핸즈,현대,고전압배터리 제외 전 작업 수리 가능,041-956-0909,경기도,고양시 일산동구 성석로 365,37.707866735185874,126.7925442964502,08:30 ~ 18:00
성정점 블루핸즈,현대,고전압배터리 제외 전 작업 수리 가능,041-579-8181,충청남도,천안시 서북구 백석로 226,36.81841912591885,127.13459323410687,08:30 ~ 18:00
아산현대서비스(주),현대,고전압배터리 제외 전 작업 수리 가능,041-531-1122,충청남도,아산시 온천대로 1790-9,36.77303520129077,127.03527057977156,08:30 ~ 18:00
장항점 블루핸즈,현대,고전압배터리 제외 전 작업 수리 가능,041-956-1010,충청남도,서천군 장항읍 장서로44번길 1,36.0117039761933,126.69871822994256,N
태안현대서비스,현대,고전압배터리 제외 전 작업 수리 가능,041-675-5217,충청남도,태안군 태안읍 원이로 79,36.7641071122537,126.287189369387,N
현대공업사,현대,고전압배터리 제외 전 작업 수리 가능,041-836-0108,충청남도,홍성군 광천읍 광천로 185,36.49258973775549,126.61892115956417,N
가경점(주) 블루핸즈,현대,고전압배터리 제외 전 작업 수리 가능,043-234-8204,충청북도,청주시 흥덕구 가경로101번길 27,36.6237705816781,127.437601247734,08:30 ~ 18:30
강서점 블루핸즈,현대,고전압배터리 제외 전 작업 수리 가능,043-237-8277,충청북도,청주시 흥덕구 서현로 14,36.6165746061664,127.42401222341,08:30 ~ 18:00
개신점 블루핸즈,현대,고전압배터리 제외 전 작업 수리 가능,043-237-3451,충청북도,청주시 서원구 성봉로 161,36.6195819573564,127.451175634908,N
광혜원점 블루핸즈,현대,고전압배터리 제외 전 작업 수리 가능,043-535-8204,충청북도,진천군 광혜원면 장기길 5,36.98219556236372,127.44108753991614,08:30 ~ 18:30
금릉점 블루핸즈,현대,고전압배터리 제외 전 작업 수리 가능,043-851-8787,충청북도,충주시 국원대로 254,36.9943952624267,127.928531333791,N
금왕점 블루핸즈,현대,고전압배터리 제외 전 작업 수리 가능,043-877-8419,충청북도,음성군 금왕읍 무극로 145,36.9891491174445,127.577048594033,08:30 ~ 18:00
남천점 블루핸즈,현대,고전압배터리 제외 전 작업 수리 가능,043-646-5131,충청북도,제천시 의병대로 134,37.1344629597872,128.21552375063135,N
내덕점(주) 블루핸즈,현대,고전압배터리 제외 전 작업 수리 가능,043-216-7777,충청북도,청주시 청원구 1순환로 252-2,36.6634420326707,127.485023087741,08:30 ~ 18:30
단양점 블루핸즈,현대,고전압배터리 제외 전 작업 수리 가능,043-423-1688,충청북도,단양군 단양읍 삼봉로 239,36.9785254988381,128.366950722074,N
대명공업사 블루핸즈,현대,고전압배터리 제외 전 작업 수리 가능,043-646-2003,충청북도,제천시 장평천로 31,37.1241726743073,128.221210258669,09:00 ~ 18:00
대소점 블루핸즈,현대,고전압배터리 제외 전 작업 수리 가능,043-877-8204,충청북도,음성군 대소읍 대금로 687-2,36.9725698816165,127.512528823723,N
보은점 블루핸즈,현대,고전압배터리 제외 전 작업 수리 가능,043-544-5294,충청북도,보은군 보은읍 죽전제방길 22-19,36.47790661576601,127.72320897822505,N
봉명점 블루핸즈,현대,고전압배터리 제외 전 작업 수리 가능,043-274-6633,대전광역시,유성구 유성대로654번길 192,36.349966489163,127.339388510237,N
봉방서부점 블루핸즈,현대,고전압배터리 제외 전 작업 수리 가능,043-843-8204,충청북도,충주시 애향로 9,36.97535647798226,127.9114992028983,N
분평점 블루핸즈,현대,고전압배터리 제외 전 작업 수리 가능,043-284-8205,충청북도,청주시 서원구 1순환로 1019-2,36.6081357747148,127.481122179899,08:30 ~ 18:00
사직점 블루핸즈,현대,고전압배터리 제외 전 작업 수리 가능,043-271-8204,부산광역시,동래구 여고로 32,35.1952743001172,129.067431481052,휴무일
송두점 블루핸즈,현대,고전압배터리 제외 전 작업 수리 가능,043-534-2338,충청북도,진천군 진천읍 덕금로 106-27,36.86948622681363,127.4623398400508,08:30 ~ 18:00
연수점 블루핸즈,현대,고전압배터리 제외 전 작업 수리 가능,043-848-8482,인천광역시,연수구 동곡재로 31,37.414606139476376,126.6726772488274,09:00 ~ 18:00
영동현대서비스,현대,고전압배터리 제외 전 작업 수리 가능,043-742-3333,충청북도,영동군 영동읍 기골로 190,36.1874999419064,127.790758088981,N
영운점 블루핸즈,현대,고전압배터리 제외 전 작업 수리 가능,043-252-8572,충청북도,청주시 상당구 단재로 157,36.615630774386325,127.50009480202574,08:30 ~ 19:00
오송점 블루핸즈,현대,고전압배터리 제외 전 작업 수리 가능,043-234-9219,충청북도,청주시 흥덕구 오송읍 만수1길 4-2,36.6228193037667,127.327473998754,08:30 ~ 17:30
오창남부점 블루핸즈,현대,고전압배터리 제외 전 작업 수리 가능,043-214-8203,충청북도,청주시 청원구 오창읍 과학산업3로 78-15,36.6973928277141,127.421555142942,09:00 ~ 18:00
오창장대점 블루핸즈,현대,고전압배터리 제외 전 작업 수리 가능,043-218-8572,충청북도,청주시 청원구 오창읍 오창시내1길 13,36.7389302902293,127.457784752969,N
옥산점 블루핸즈,현대,고전압배터리 제외 전 작업 수리 가능,043-260-1988,충청북도,청주시 흥덕구 옥산면 오송가락로 895,36.666454156761,127.380173630948,N
용암동부점 블루핸즈,현대,고전압배터리 제외 전 작업 수리 가능,043-285-8277,충청북도,청주시 상당구 용암북로168번길 11-2,36.6227001086398,127.515953667799,N
요촌점 블루핸즈,현대,고전압배터리 제외 전 작업 수리 가능,063-544-3721,전북특별자치도,김제시 중앙로 130,35.802819622386195,126.88957779998007,N
인후남부점 블루핸즈,현대,고전압배터리 제외 전 작업 수리 가능,063-244-9383,전북특별자치도,전주시 덕진구 건산로 213,35.83395689003473,127.16036439008047,08:30 ~ 17:00
인후점 블루핸즈,현대,고전압배터리 제외 전 작업 수리 가능,063-245-9119,전북특별자치도,전주시 덕진구 가재미로 50,35.829579558683896,127.16232000427637,08:30 ~ 18:00
조촌점 블루핸즈,현대,고전압배터리 제외 전 작업 수리 가능,063-445-8270,전북특별자치도,군산시 조촌로 139,35.97657908714606,126.7373147286005,00:00 ~ 24:00
죽항점 블루핸즈,현대,고전압배터리 제외 전 작업 수리 가능,063-625-0646,전북특별자치도,남원시 의총로 90-27,35.4087447680325,127.377950042074,08:30 ~ 17:30
중화산중부점 블루핸즈,현대,고전압배터리 제외 전 작업 수리 가능,063-282-8572,전북특별자치도,전주시 완산구 서원로 341,35.8131691791859,127.131552766389,08:30 ~ 17:30
지곡남부점 블루핸즈,현대,고전압배터리 제외 전 작업 수리 가능,063-466-2211,전북특별자치도,군산시 지곡로 33,35.95639754213891,126.71096981346004,08:30 ~ 18:00
지곡점 블루핸즈,현대,고전압배터리 제외 전 작업 수리 가능,063-466-8297,전북특별자치도,군산시 지곡로 33,35.95639754213891,126.71096981346004,08:30 ~ 18:00
진안점 블루핸즈,현대,고전압배터리 제외 전 작업 수리 가능,063-433-6982,경기도,화성시 병점구 병점4로 55,37.214600640186,127.036943070872,N
태인점 블루핸즈,현대,고전압배터리 제외 전 작업 수리 가능,063-534-8688,전북특별자치도,정읍시 태인면 정읍북로 1203,35.6506691436576,126.93374533203,08:00 ~ 18:00
평화점 블루핸즈,현대,고전압배터리 제외 전 작업 수리 가능,063-228-8272,전라남도,목포시 평화로107번길 5,34.798520899282884,126.43545913794632,N
하정점 블루핸즈,현대,고전압배터리 제외 전 작업 수리 가능,063-633-6111,전북특별자치도,남원시 의총로 90-27,35.4087447680325,127.377950042074,08:30 ~ 17:30
한국자동차공업사 블루핸즈,현대,고전압배터리 제외 전 작업 수리 가능,063-581-5566,충청남도,태안군 태안읍 원이로 79,36.7641071122537,126.287189369387,N
함열점 블루핸즈,현대,고전압배터리 제외 전 작업 수리 가능,063-861-7770,전북특별자치도,익산시 함열읍 함낭로 495,36.07407812174314,126.96213891152657,N
현대고창서비스,현대,고전압배터리 제외 전 작업 수리 가능,063-561-1911,전북특별자치도,고창군 고창읍 보릿골로 106,35.43456209704834,126.69578887906222,08:30 ~ 18:00
현대장수서비스,현대,고전압배터리 제외 전 작업 수리 가능,063-353-8272,전북특별자치도,장수군 계남면 장무로 155,35.72500288997087,127.58291698053176,08:30 ~ 18:00
호성점 블루핸즈,현대,고전압배터리 제외 전 작업 수리 가능,063-246-8182,전북특별자치도,전주시 덕진구 동부대로 802,35.85929936794627,127.15481555687003,N
황등점 블루핸즈,현대,고전압배터리 제외 전 작업 수리 가능,063-856-8572,전북특별자치도,익산시 황등면 황등로 14,35.99459219979758,126.94921805724356,08:00 ~ 18:00
효자남부점 블루핸즈,현대,고전압배터리 제외 전 작업 수리 가능,063-224-8865,전북특별자치도,전주시 완산구 쑥고개로 376,35.803578722221495,127.10615714072172,08:30 ~ 18:00
효자북부점 블루핸즈,현대,고전압배터리 제외 전 작업 수리 가능,063-224-7282,전북특별자치도,전주시 완산구 후곡길 5-16,35.80934088456239,127.09491124506827,08:30 ~ 18:00
효자점 블루핸즈,현대,고전압배터리 제외 전 작업 수리 가능,063-227-9949,전북특별자치도,전주시 완산구 안행로 50,35.8014325050833,127.133586754501,08:30 ~ 18:30
강정점 블루핸즈,현대,고전압배터리 제외 전 작업 수리 가능,064-738-3749,제주특별자치도,서귀포시 일주서로 215-3,33.2500128116772,126.484953515227,08:30 ~ 16:30
노형북부점 블루핸즈,현대,고전압배터리 제외 전 작업 수리 가능,064-747-1475,제주특별자치도,제주시 월광로 43,33.4854812784823,126.465509399744,08:30 ~ 18:30
노형점 블루핸즈,현대,고전압배터리 제외 전 작업 수리 가능,064-746-5109,제주특별자치도,제주시 월광로 43,33.4854812784823,126.465509399744,08:30 ~ 18:30
대정점 블루핸즈,현대,고전압배터리 제외 전 작업 수리 가능,064-794-6650,대전광역시,서구 가수원로 103-13,36.303103831942,127.348613316668,08:30 ~ 17:30
함양점 블루핸즈,현대,고전압배터리 제외 전 작업 수리 가능,055-963-9453,경상남도,함양군 함양읍 함양로 1262,35.5297907106294,127.733182211828,N
합천점 블루핸즈,현대,고전압배터리 제외 전 작업 수리 가능,055-934-1388,경상남도,합천군 합천읍 대야로 932,35.57149780376977,128.1640671573945,N
강구점 블루핸즈,현대,고전압배터리 제외 전 작업 수리 가능,054-733-5300,경상북도,영덕군 강구면 동해대로 4571,36.3650191999398,129.37658770587,N
건천점 블루핸즈,현대,고전압배터리 제외 전 작업 수리 가능,054-751-8207,경상북도,경주시 건천읍 내서로 1201,35.8434722592663,129.10941922652282,08:30 ~ 17:30
계양점 블루핸즈,현대,고전압배터리 제외 전 작업 수리 가능,053-802-8204,경상북도,경산시 원효로 120,35.8222266406555,128.750507476349,08:30 ~ 17:30
달전점 블루핸즈,현대,고전압배터리 제외 전 작업 수리 가능,054-262-8204,경상북도,포항시 북구 소티재로 173,36.06652092911649,129.35071299040837,08:30 ~ 18:00
북포항현대자동차서비스(주),현대,고전압배터리 제외 전 작업 수리 가능,054-232-8204,경상북도,포항시 북구 청하면 동해대로 2353,36.17957825322539,129.34021834384902,08:30 ~ 18:00
성건점 블루핸즈,현대,고전압배터리 제외 전 작업 수리 가능,054-744-8204,경상북도,경주시 북문로 63,35.85035694334212,129.20946877628424,08:30 ~ 18:00
성동점 블루핸즈,현대,고전압배터리 제외 전 작업 수리 가능,054-771-7120,경상북도,경주시 알천남로 176-1,35.8492379838901,129.219186896799,08:30 ~ 18:00
송도점 블루핸즈,현대,고전압배터리 제외 전 작업 수리 가능,054-243-8204,인천광역시,연수구 신송로118번길 9,37.3962728369954,126.652883370244,09:00 ~ 18:00
안강점 블루핸즈,현대,고전압배터리 제외 전 작업 수리 가능,054-763-8205,경상북도,경주시 안강읍 안강중앙로 40-1,35.9952467279624,129.204536863814,08:30 ~ 18:00
야사점 블루핸즈,현대,고전압배터리 제외 전 작업 수리 가능,054-338-0003,경상북도,영천시 충효로 171,35.97785581076549,128.94710723369872,08:30 ~ 17:30
영천점 블루핸즈,현대,고전압배터리 제외 전 작업 수리 가능,054-336-8204,경상북도,영천시 향군로 16,35.96430061929792,128.91939354038377,08:30 ~ 17:30
오천점 블루핸즈,현대,고전압배터리 제외 전 작업 수리 가능,054-292-4473,경상북도,포항시 남구 오천읍 정몽주로 625,35.97380813827748,129.41449625530234,08:30 ~ 18:00
용강점 블루핸즈,현대,고전압배터리 제외 전 작업 수리 가능,054-741-8204,서울,마포구 토정로 270,37.5423738327036,126.939616718821,08:30 ~ 18:00
울릉서비스 블루핸즈,현대,고전압배터리 제외 전 작업 수리 가능,054-791-0014,경상북도,울릉군 울릉읍 사동2길 139,37.48142642349515,130.89035575744575,08:30 ~ 17:30
이동점 블루핸즈,현대,고전압배터리 제외 전 작업 수리 가능,054-276-8204,경상북도,포항시 남구 이동로 20,36.0319678244665,129.337727570662,09:00 ~ 18:30
죽변점 블루핸즈,현대,고전압배터리 제외 전 작업 수리 가능,054-783-0161,경상북도,울진군 죽변면 울진북로 1552,37.0743790944999,129.40133390197926,08:30 ~ 18:30
청도점 블루핸즈,현대,고전압배터리 제외 전 작업 수리 가능,054-373-8208,경상북도,청도군 청도읍 중앙로 77,35.64616638315062,128.75176360521542,08:30 ~ 17:30
청림점 블루핸즈,현대,고전압배터리 제외 전 작업 수리 가능,054-292-5020,경상북도,포항시 남구 정몽주로 897,35.9946179822379,129.403477007473,08:30 ~ 18:00
충효점 블루핸즈,현대,고전압배터리 제외 전 작업 수리 가능,054-743-8204,경상북도,경주시 태종로 450-2,35.84341630351092,129.179080047076,08:30 ~ 18:00
하양자동차종합정비 블루핸즈,현대,고전압배터리 제외 전 작업 수리 가능,053-851-9009,경상북도,경산시 진량읍 공단10로 349,35.88599969495514,128.8346689005553,09:00 ~ 18:00
현대자동차삼천리써비스,현대,고전압배터리 제외 전 작업 수리 가능,054-337-3005,경상북도,영천시 금호읍 금호로 338-32,35.93734514526218,128.8963570726055,08:30 ~ 17:30
현대자동차청도서비스,현대,고전압배터리 제외 전 작업 수리 가능,054-373-8400,경상북도,청도군 화양읍 청려로 1798,35.650994813388685,128.71526861330568,09:00 ~ 17:30
황성점 블루핸즈,현대,고전압배터리 제외 전 작업 수리 가능,054-776-8209,경상북도,경주시 갓뒤길3번길 1-6,35.8707054732345,129.216298502494,08:30 ~ 18:00
후포점 블루핸즈,현대,고전압배터리 제외 전 작업 수리 가능,054-788-8204,경상북도,울진군 후포면 후포삼율로 199,36.68773311576091,129.44146054469866,08:30 ~ 18:00
흥해점 블루핸즈,현대,고전압배터리 제외 전 작업 수리 가능,054-262-8275,경상북도,포항시 북구 흥해읍 동해대로 1529,36.108622855392696,129.3424508901986,08:30 ~ 18:00
북동점 블루핸즈,현대,고전압배터리 제외 전 작업 수리 가능,062-521-8572,광주광역시,북구 중흥로 124,35.1625642561698,126.907669278827,08:30 ~ 17:30
산정점 블루핸즈,현대,고전압배터리 제외 전 작업 수리 가능,062-955-8204,광주광역시,광산구 산정공원로81번길 30,35.17507110591899,126.80480906155653,N
신창진흥점 블루핸즈,현대,고전압배터리 제외 전 작업 수리 가능,062-961-3111,광주광역시,광산구 북문대로 482,35.1984356291781,126.84437768844676,08:30 ~ 18:00
용봉점 블루핸즈,현대,고전압배터리 제외 전 작업 수리 가능,062-523-8205,광주광역시,북구 설죽로 223,35.17955395194659,126.8975862152732,N
월산점 블루핸즈,현대,고전압배터리 제외 전 작업 수리 가능,062-368-8572,광주광역시,남구 월산로 47-4,35.14242131620708,126.89944006141764,08:30 ~ 19:00
풍암점 블루핸즈,현대,고전압배터리 제외 전 작업 수리 가능,062-654-8572,광주광역시,서구 풍암순환로128번길 81,35.12888169071809,126.88591891751756,08:30 ~ 18:00
화정점 블루핸즈,현대,고전압배터리 제외 전 작업 수리 가능,062-383-3116,광주광역시,서구 화정로 80,35.1447182476401,126.866160680206,08:30 ~ 18:00
관저점 블루핸즈,현대,고전압배터리 제외 전 작업 수리 가능,042-542-8572,대전광역시,서구 관저동로73번길 23,36.2983871526948,127.339173835266,N
괴정점 블루핸즈,현대,고전압배터리 제외 전 작업 수리 가능,042-535-0711,대전광역시,유성구 북유성대로 149,36.379855221923066,127.32299315566738,N
대동점 블루핸즈,현대,고전압배터리 제외 전 작업 수리 가능,042-282-0109,대전광역시,동구 계족로 122-1,36.32524921413,127.445775549981,N
팽성점 블루핸즈,현대,고전압배터리 제외 전 작업 수리 가능,031-691-4856,경기도,평택시 팽성읍 안정로 215,36.9696042378844,127.063521442838,09:00 ~ 18:00
대흥점 블루핸즈,현대,고전압배터리 제외 전 작업 수리 가능,042-221-7282,대전광역시,동구 계족로 122-1,36.32524921413,127.445775549981,N
도마점 블루핸즈,현대,고전압배터리 제외 전 작업 수리 가능,042-535-6826,대전광역시,서구 도산로 149,36.3218076200943,127.37747277724,N
둔산동부점 블루핸즈,현대,고전압배터리 제외 전 작업 수리 가능,042-476-8204,대전광역시,서구 문정로9번길 10-12,36.3458353515315,127.381278186136,08:30 ~ 18:00
목상점 블루핸즈,현대,고전압배터리 제외 전 작업 수리 가능,042-935-2110,대전광역시,대덕구 대덕대로 1508,36.4492676938806,127.415853947613,08:30 ~ 18:00
문화점 블루핸즈,현대,고전압배터리 제외 전 작업 수리 가능,042-582-1199,대전광역시,중구 산성로 138,36.3118794959671,127.402019613569,N
변동점 블루핸즈,현대,고전압배터리 제외 전 작업 수리 가능,042-532-3400,대전광역시,서구 도산로 149,36.3218076200943,127.37747277724,N
봉명점 블루핸즈,현대,고전압배터리 제외 전 작업 수리 가능,042-823-0119,대전광역시,유성구 유성대로654번길 192,36.349966489163,127.339388510237,N
상서점 블루핸즈,현대,고전압배터리 제외 전 작업 수리 가능,042-933-4972,대전광역시,대덕구 신탄진로 607,36.4330923020091,127.423422479002,08:30 ~ 18:00
선화점 블루핸즈,현대,고전압배터리 제외 전 작업 수리 가능,042-242-8202,대전광역시,동구 계족로 122-1,36.32524921413,127.445775549981,N
안영점 블루핸즈,현대,고전압배터리 제외 전 작업 수리 가능,042-586-1393,대전광역시,중구 대둔산로 237,36.29130296723262,127.38133996638044,08:30 ~ 18:00
용문점 블루핸즈,현대,고전압배터리 제외 전 작업 수리 가능,042-536-8204,대전광역시,서구 도산로 339,36.3357949150491,127.389516125378,N
용전점 블루핸즈,현대,고전압배터리 제외 전 작업 수리 가능,042-636-0711,대전광역시,동구 계족로505번길 3,36.3567383742767,127.432442950348,N
원신흥점 블루핸즈,현대,고전압배터리 제외 전 작업 수리 가능,042-632-6615,대전광역시,유성구 원신흥로40번길 21,36.3378749385732,127.341131586026,09:00 ~ 17:30
자운점 블루핸즈,현대,고전압배터리 제외 전 작업 수리 가능,042-863-2500,대전광역시,유성구 유성대로1184번길 71,36.3949944472401,127.353691461516,08:30 ~ 18:00
중리점 블루핸즈,현대,고전압배터리 제외 전 작업 수리 가능,042-635-8204,대전광역시,대덕구 송촌북로5번길 7,36.3626959840853,127.436665335371,08:30 ~ 18:00
지족점 블루핸즈,현대,고전압배터리 제외 전 작업 수리 가능,042-477-7676,대전광역시,유성구 은구비남로 1,36.3724088447792,127.315910752988,08:30 ~ 17:30
탑립점 블루핸즈,현대,고전압배터리 제외 전 작업 수리 가능,042-626-9974,대전광역시,유성구 테크노10로 53,36.4164556462663,127.408239827118,N
호계점 블루핸즈,현대,고전압배터리 제외 전 작업 수리 가능,031-458-8204,경기도,안양시 동안구 경수대로 697,37.38405896259549,126.95153563958787,N
호매실점 블루핸즈,현대,고전압배터리 제외 전 작업 수리 가능,031-217-8204,경기도,수원시 권선구 칠보로113번길 16,37.2670021436142,126.951395425325,N
호평점 블루핸즈,현대,고전압배터리 제외 전 작업 수리 가능,031-511-8200,경기도,남양주시 경춘로 1319,37.6513411919362,127.238463213808,08:30 ~ 18:00
화도점 블루핸즈,현대,고전압배터리 제외 전 작업 수리 가능,031-594-0500,경기도,남양주시 화도읍 경춘로 1713,37.6557124030231,127.281164479224,08:30 ~ 18:00
화서점 블루핸즈,현대,고전압배터리 제외 전 작업 수리 가능,031-247-8204,경기도,수원시 팔달구 팔달로 151,37.2819836889155,127.005372009898,N
화정점 블루핸즈,현대,고전압배터리 제외 전 작업 수리 가능,031-978-5151,광주광역시,서구 화정로 80,35.1447182476401,126.866160680206,08:30 ~ 18:00
회정점 블루핸즈,현대,고전압배터리 제외 전 작업 수리 가능,031-859-8888,경기도,양주시 평화로 1807,37.8503843317376,127.0545104737375,09:00 ~ 17:00
흥명자동차공업사 블루핸즈,현대,고전압배터리 제외 전 작업 수리 가능,031-836-1101,경기도,양주시 광적면 부흥로 931,37.8106465988116,126.993272602009,08:00 ~ 18:00
(주)동진자동차정비 블루핸즈,현대,고전압배터리 제외 전 작업 수리 가능,055-646-2525,경상남도,통영시 평인일주로 1106-88,34.85742807883679,128.4168510414119,08:30 ~ 17:30
(주)연초자동차종합정비공장 블루핸즈,현대,고전압배터리 제외 전 작업 수리 가능,055-636-2600,경상남도,거제시 연초면 방곡길 3,34.91045619413146,128.66206624304144,08:30 ~ 18:00
가야점 블루핸즈,현대,고전압배터리 제외 전 작업 수리 가능,055-584-9966,부산광역시,부산진구 가야대로 660,35.1556378632095,129.044065356307,08:30 ~ 18:00
거제상동점 블루핸즈,현대,고전압배터리 제외 전 작업 수리 가능,055-635-4060,경상남도,거제시 상동1길 18-3,34.8649706962109,128.639789202256,08:30 ~ 18:00
거제서정점 블루핸즈,현대,고전압배터리 제외 전 작업 수리 가능,055-634-1418,경상남도,거제시 거제면 읍내로 104,34.8530742750079,128.5876024237,08:30 ~ 18:00
거창점 블루핸즈,현대,고전압배터리 제외 전 작업 수리 가능,055-943-3360,경상남도,거창군 거창읍 가조가야로 16,35.695163958716535,127.92129701291694,08:30 ~ 18:30
고성점 블루핸즈,현대,고전압배터리 제외 전 작업 수리 가능,055-672-2933,대구광역시,북구 옥산로 74,35.88442846374113,128.58362100150987,N
광도점 블루핸즈,현대,고전압배터리 제외 전 작업 수리 가능,055-649-8572,경상남도,통영시 평인일주로 1106-88,34.85742807883679,128.4168510414119,08:30 ~ 17:30
금산점 블루핸즈,현대,고전압배터리 제외 전 작업 수리 가능,055-763-2988,충청남도,금산군 금성면 안비범길 14,36.1153423832176,127.494736600566,N
내서점 블루핸즈,현대,고전압배터리 제외 전 작업 수리 가능,055-232-7740,경상남도,창원시 마산회원구 내서읍 호원로 263,35.2569922857027,128.521386101085,08:30 ~ 18:00
대산점 블루핸즈,현대,고전압배터리 제외 전 작업 수리 가능,055-255-8203,충청남도,서산시 대산읍 명지2로 203,36.9664536988374,126.412095494552,N
마산현대서비스,현대,고전압배터리 제외 전 작업 수리 가능,055-253-3113,경상남도,창원시 마산회원구 무역로 161,35.2118387562769,128.603597002334,N
봉곡점 블루핸즈,현대,고전압배터리 제외 전 작업 수리 가능,055-276-2580,경상남도,창원시 의창구 지귀로24번길 14,35.24460055624595,128.65088686977845,N
봉평점 블루핸즈,현대,고전압배터리 제외 전 작업 수리 가능,055-645-4979,경상남도,통영시 도남로 103,34.8314608818954,128.415961122127,N
북변점 블루핸즈,현대,고전압배터리 제외 전 작업 수리 가능,055-863-6633,경상남도,남해군 남해읍 화전로 123-7,34.8428836307742,127.893741155059,N
북신점 블루핸즈,현대,고전압배터리 제외 전 작업 수리 가능,055-648-8517,경상남도,통영시 원문로 38,34.85782309373381,128.42462114401297,08:30 ~ 18:00
사림점 블루핸즈,현대,고전압배터리 제외 전 작업 수리 가능,055-281-0670,경상남도,창원시 의창구 사림로158번길 16-7,35.2426832148562,128.684203738381,08:30 ~ 19:00
사천점 블루핸즈,현대,고전압배터리 제외 전 작업 수리 가능,055-852-7772,경상남도,사천시 사천읍 동문1길 87,35.0855235993002,128.096687432774,N
삼천포종합정비(주) 블루핸즈,현대,고전압배터리 제외 전 작업 수리 가능,055-833-7610,경상남도,사천시 삼천포대교로 577,34.9492024411881,128.077498209104,08:30 ~ 17:30
상대점 블루핸즈,현대,고전압배터리 제외 전 작업 수리 가능,055-761-8611,경상남도,진주시 모덕로 195,35.188426889025,128.11531842706,N
상평점 블루핸즈,현대,고전압배터리 제외 전 작업 수리 가능,055-753-8588,경상남도,진주시 도동로 8,35.17078901261309,128.12374341310377,08:30 ~ 18:00
서성점 블루핸즈,현대,고전압배터리 제외 전 작업 수리 가능,055-243-0043,경상남도,창원시 마산합포구 남성로 21,35.2038180032488,128.570305431303,N
소답점 블루핸즈,현대,고전압배터리 제외 전 작업 수리 가능,055-253-0201,경상남도,창원시 의창구 읍성로 124,35.26196594699892,128.6284292029524,N
신라자동차1급정비 블루핸즈,현대,고전압배터리 제외 전 작업 수리 가능,055-674-0330,경상남도,고성군 고성읍 남해안대로 2524,34.96956808511359,128.33540045492484,N
신성종합자동차정비 블루핸즈,현대,고전압배터리 제외 전 작업 수리 가능,055-536-8558,경상남도,창녕군 영산면 영산도천로 440,35.4428426467472,128.520268167618,08:30 ~ 17:30
신안점 블루핸즈,현대,고전압배터리 제외 전 작업 수리 가능,055-741-6464,광주광역시,북구 중흥로 124,35.1625642561698,126.907669278827,08:30 ~ 17:30
신항점 블루핸즈,현대,고전압배터리 제외 전 작업 수리 가능,055-835-2100,경상남도,사천시 신항로 53,34.93256957087621,128.08454353478862,08:30 ~ 18:00
양덕동부점 블루핸즈,현대,고전압배터리 제외 전 작업 수리 가능,055-297-8204,경상남도,창원시 마산회원구 합성옛길 42,35.2339710402333,128.58293620206976,08:30 ~ 18:00
양덕점 블루핸즈,현대,고전압배터리 제외 전 작업 수리 가능,055-296-8204,경상남도,창원시 마산회원구 양덕남9길 88,35.22424678373906,128.58767973830814,N
옥포종합정비 블루핸즈,현대,고전압배터리 제외 전 작업 수리 가능,055-687-3377,경상남도,거제시 옥포로12길 18,34.8920397143677,128.693014902383,08:30 ~ 18:00
용강점 블루핸즈,현대,고전압배터리 제외 전 작업 수리 가능,055-833-8206,서울,마포구 토정로 270,37.5423738327036,126.939616718821,08:30 ~ 18:00
용남중부점 블루핸즈,현대,고전압배터리 제외 전 작업 수리 가능,055-645-5417,경상남도,통영시 용남면 남해안대로 533,34.8610580726187,128.441276859144,08:30 ~ 18:30
용원웅동점 블루핸즈,현대,고전압배터리 제외 전 작업 수리 가능,055-715-1472,경상남도,창원시 진해구 용원북로11번가길 40,35.10450519521378,128.81049776380615,09:00 ~ 18:00
용원점 블루핸즈,현대,고전압배터리 제외 전 작업 수리 가능,055-547-8873,경상남도,창원시 진해구 만금로 9,35.0988446281372,128.821987382644,09:00 ~ 18:00
의령점 블루핸즈,현대,고전압배터리 제외 전 작업 수리 가능,055-572-9585,경상남도,의령군 의령읍 백산로 32,35.32177904612857,128.26669826699035,N
정동점 블루핸즈,현대,고전압배터리 제외 전 작업 수리 가능,055-854-8864,경상남도,사천시 정동면 진삼로 1347,35.07268282673897,128.08160434695782,09:00 ~ 18:30
주약점 블루핸즈,현대,고전압배터리 제외 전 작업 수리 가능,055-757-5800,경상남도,진주시 진주대로 840,35.1758004363735,128.092893024842,N
죽림점 블루핸즈,현대,고전압배터리 제외 전 작업 수리 가능,055-649-2885,전라남도,여수시 화산로 99,34.77511961647071,127.64833141470277,08:30 ~ 17:30
중리점 블루핸즈,현대,고전압배터리 제외 전 작업 수리 가능,055-231-8509,대전광역시,대덕구 송촌북로5번길 7,36.3626959840853,127.436665335371,08:30 ~ 18:00
진동점 블루핸즈,현대,고전압배터리 제외 전 작업 수리 가능,055-271-5020,경상남도,창원시 마산합포구 진동면 삼진의거대로 593,35.1145212060373,128.482844071564,N
진해점 블루핸즈,현대,고전압배터리 제외 전 작업 수리 가능,055-551-0064,경상남도,창원시 진해구 해원로14번길 2,35.15357661165647,128.6958993169312,N
진해충무점 블루핸즈,현대,고전압배터리 제외 전 작업 수리 가능,055-547-8300,경상남도,창원시 진해구 충장로52번길 1,35.1525798209671,128.658014726447,09:00 ~ 18:30
창녕점 블루핸즈,현대,고전압배터리 제외 전 작업 수리 가능,055-533-2566,경상남도,창녕군 창녕읍 우포1대로 1559,35.5406660983768,128.483860593509,N
칠원점 블루핸즈,현대,고전압배터리 제외 전 작업 수리 가능,055-587-5145,경기도,평택시 신촌로 95,37.0271236141478,127.110627032789,08:30 ~ 18:30
태성종합정비 블루핸즈,현대,고전압배터리 제외 전 작업 수리 가능,055-763-2506,경상남도,진주시 대신로109번길 9,35.1698329643085,128.117092866034,09:00 ~ 18:00
팔용점 블루핸즈,현대,고전압배터리 제외 전 작업 수리 가능,055-299-2220,경상남도,창원시 의창구 무역로503번길 5-26,35.223875875752235,128.63423214168787,08:30 ~ 18:00
팔용중앙점 블루핸즈,현대,고전압배터리 제외 전 작업 수리 가능,055-253-3657,경상남도,창원시 의창구 남산로 35,35.2586450717861,128.613893272878,N
평거점 블루핸즈,현대,고전압배터리 제외 전 작업 수리 가능,055-746-9200,경상남도,진주시 남강로309번길 12,35.1688669222279,128.062993100165,08:00 ~ 18:00
풍호점 블루핸즈,현대,고전압배터리 제외 전 작업 수리 가능,055-547-4454,경상남도,창원시 진해구 진해대로1047번길 24,35.13600812309581,128.71070422020924,09:00 ~ 18:00
하동점 블루핸즈,현대,고전압배터리 제외 전 작업 수리 가능,055-883-5805,경상남도,하동군 하동읍 군청로 149-1,35.0610723575835,127.763357504744,N
월곶점 블루핸즈,현대,고전압배터리 제외 전 작업 수리 가능,031-404-9191,경기도,김포시 통진읍 서암고정로 196,37.7023527584121,126.608714248207,09:00 ~ 18:00
월피점 블루핸즈,현대,고전압배터리 제외 전 작업 수리 가능,031-485-7784,경기도,안산시 상록구 안산천서로 235,37.3347477962814,126.847749896048,N
위시티로점 블루핸즈,현대,고전압배터리 제외 전 작업 수리 가능,031-907-0136,경기도,고양시 일산동구 위시티2로 43,37.6755332452667,126.815185264685,09:00 ~ 17:30
유방점 블루핸즈,현대,고전압배터리 제외 전 작업 수리 가능,031-337-2294,경기도,용인시 처인구 백옥대로 1367,37.2571016220551,127.212144737909,N
은행점 블루핸즈,현대,고전압배터리 제외 전 작업 수리 가능,031-745-3017,경기도,성남시 중원구 산성대로 592,37.46211671552626,127.1690287983554,08:30 ~ 18:00
의왕부곡점 블루핸즈,현대,고전압배터리 제외 전 작업 수리 가능,031-461-5701,경기도,수원시 장안구 천천로 106,37.3009549402772,126.983672388006,09:00 ~ 18:00
의정부점 블루핸즈,현대,고전압배터리 제외 전 작업 수리 가능,031-875-6848,경기도,의정부시 경의로 33,37.7331285175674,127.039133383739,08:30 ~ 18:00
이동점 블루핸즈,현대,고전압배터리 제외 전 작업 수리 가능,031-417-5356,경상북도,포항시 남구 이동로 20,36.0319678244665,129.337727570662,09:00 ~ 18:30
이천증포점 블루핸즈,현대,고전압배터리 제외 전 작업 수리 가능,031-634-5171,경기도,이천시 증신로 170,37.2906226293506,127.450712739205,09:00 ~ 18:00
일동점 블루핸즈,현대,고전압배터리 제외 전 작업 수리 가능,031-531-3100,경기도,안산시 상록구 성호로 22,37.3085024979711,126.86879755611,N
일산동부점 블루핸즈,현대,고전압배터리 제외 전 작업 수리 가능,031-911-8204,경기도,고양시 일산동구 산두로213번길 34,37.6740950835219,126.779419115986,N
일산점 블루핸즈,현대,고전압배터리 제외 전 작업 수리 가능,031-975-1265,경기도,고양시 일산서구 고양대로 605,37.6869932179776,126.764383979186,08:30 ~ 18:00
장곡점 블루핸즈,현대,고전압배터리 제외 전 작업 수리 가능,031-404-3153,경기도,시흥시 황고개로 476,37.3734903007147,126.790655237988,09:00 ~ 18:30
장기점 블루핸즈,현대,고전압배터리 제외 전 작업 수리 가능,031-989-8242,경기도,김포시 김포한강2로24번길 78-19,37.646249531345006,126.67668226550656,08:30 ~ 17:30
정남점 블루핸즈,현대,고전압배터리 제외 전 작업 수리 가능,031-352-7766,경기도,화성시 효행구 정남면 만년로 400,37.157468391378536,126.9826450686958,09:00 ~ 18:00
정발산점 블루핸즈,현대,고전압배터리 제외 전 작업 수리 가능,031-914-0539,경기도,고양시 일산동구 일산로441번길 81,37.6700224247795,126.775473096934,08:30 ~ 17:30
정왕북부점 블루핸즈,현대,고전압배터리 제외 전 작업 수리 가능,031-432-4233,경기도,시흥시 함송로13번길 14,37.36467431045271,126.73118657829714,08:30 ~ 18:00
정왕중부점 블루핸즈,현대,고전압배터리 제외 전 작업 수리 가능,031-431-5149,경기도,시흥시 평안상가5길 15-1,37.33621203846207,126.74724182558546,08:30 ~ 17:30
정자점 블루핸즈,현대,고전압배터리 제외 전 작업 수리 가능,031-717-8272,경기도,성남시 분당구 내정로107번길 3,37.3695991741629,127.114189591151,09:00 ~ 17:00
정자점 블루핸즈,현대,고전압배터리 제외 전 작업 수리 가능,031-244-0488,경기도,성남시 분당구 내정로107번길 3,37.3695991741629,127.114189591151,09:00 ~ 17:00
조리점 블루핸즈,현대,고전압배터리 제외 전 작업 수리 가능,031-957-8608,경기도,파주시 조리읍 대원로 203,37.7352812428242,126.803451702706,N
조원점 블루핸즈,현대,고전압배터리 제외 전 작업 수리 가능,031-257-8587,경기도,수원시 장안구 경수대로894번길 8,37.3000868505581,127.012082023335,08:30 ~ 18:00
주교점 블루핸즈,현대,고전압배터리 제외 전 작업 수리 가능,031-962-1343,경기도,고양시 덕양구 고양대로1315번길 58-13,37.6583446442892,126.830994243226,08:30 ~ 17:30
㈜평내현대써비스,현대,고전압배터리 제외 전 작업 수리 가능,031-595-3663,경기도,남양주시 경춘로 1319,37.6513411919362,127.238463213808,08:30 ~ 18:00
죽산자동차정비(주) 블루핸즈,현대,고전압배터리 제외 전 작업 수리 가능,031-676-4455,경기도,안성시 죽산면 죽주로 73,37.0735647308859,127.404520386405,N
죽율점 블루핸즈,현대,고전압배터리 제외 전 작업 수리 가능,031-497-8700,경기도,시흥시 죽율로 141-6,37.355908659228845,126.76479524023632,08:30 ~ 18:00
진성자동차공업(주) 블루핸즈,현대,고전압배터리 제외 전 작업 수리 가능,031-321-1700,경상남도,진주시 도동로 154,35.18386950195889,128.12277733652937,09:00 ~ 17:30
진안점 블루핸즈,현대,고전압배터리 제외 전 작업 수리 가능,031-226-5547,경기도,화성시 병점구 병점4로 55,37.214600640186,127.036943070872,N
진위점 블루핸즈,현대,고전압배터리 제외 전 작업 수리 가능,031-378-0014,경기도,평택시 삼봉로 58,37.0891415527715,127.069352854411,09:00 ~ 18:00
진접점 블루핸즈,현대,고전압배터리 제외 전 작업 수리 가능,031-527-8204,경기도,남양주시 진접읍 장현로 85,37.7181108794994,127.181744690178,09:00 ~ 19:00
창우점 블루핸즈,현대,고전압배터리 제외 전 작업 수리 가능,031-796-5545,경기도,하남시 창우로 78,37.5335585675328,127.226465945764,08:30 ~ 17:30
천천점 블루핸즈,현대,고전압배터리 제외 전 작업 수리 가능,031-292-8297,경기도,수원시 장안구 일월로66번길 16,37.2888730047177,126.978505490638,08:30 ~ 18:00
천현점 블루핸즈,현대,고전압배터리 제외 전 작업 수리 가능,031-795-7722,경기도,하남시 창우로 78,37.5335585675328,127.226465945764,08:30 ~ 17:30
청북점 블루핸즈,현대,고전압배터리 제외 전 작업 수리 가능,031-683-8572,경기도,화성시 만세구 양감면 은행나무로 23,37.0648002013263,126.932498714949,08:30 ~ 17:30
청평점 블루핸즈,현대,고전압배터리 제외 전 작업 수리 가능,031-585-6300,경기도,가평군 청평면 경춘로 805-1,37.73764034367693,127.41720513843056,08:30 ~ 18:00
청학점 블루핸즈,현대,고전압배터리 제외 전 작업 수리 가능,031-372-8288,경기도,오산시 청학로 66,37.15482146780352,127.06532750742608,08:30 ~ 18:00
초지점 블루핸즈,현대,고전압배터리 제외 전 작업 수리 가능,031-484-8101,경기도,안산시 단원구 원포공원2로 35,37.3017426187489,126.813514165412,N
탄현북부점 블루핸즈,현대,고전압배터리 제외 전 작업 수리 가능,031-918-8234,경기도,파주시 시청로 229,37.7710500411313,126.773578947445,N
토당능곡점 블루핸즈,현대,고전압배터리 제외 전 작업 수리 가능,031-972-1472,경기도,고양시 덕양구 토당로 20,37.6184121574071,126.82301994857,08:30 ~ 18:00
토평점 블루핸즈,현대,고전압배터리 제외 전 작업 수리 가능,031-564-9940,경기도,구리시 벌말로 122,37.5873672455598,127.148537729591,09:00 ~ 18:30
통일로점 블루핸즈,현대,고전압배터리 제외 전 작업 수리 가능,031-969-7307,경기도,파주시 조리읍 통일로 477-14,37.7555205299267,126.801278416575,08:30 ~ 18:00
통진남부점 블루핸즈,현대,고전압배터리 제외 전 작업 수리 가능,031-984-0085,경기도,김포시 통진읍 율마로 332,37.6806245837936,126.598690388735,N
퇴촌점 블루핸즈,현대,고전압배터리 제외 전 작업 수리 가능,031-767-4422,경기도,광주시 중앙로 21,37.40601569672768,127.26569572745058,08:30 ~ 18:00
파주현대서비스,현대,고전압배터리 제외 전 작업 수리 가능,031-949-9141,경기도,파주시 월롱면 휴암로 235,37.81236333208491,126.7825504666524,N
평촌중부점 블루핸즈,현대,고전압배터리 제외 전 작업 수리 가능,031-426-8254,경기도,안양시 동안구 흥안대로 366,37.3869509109131,126.973098033748,N
포곡점 블루핸즈,현대,고전압배터리 제외 전 작업 수리 가능,031-322-1872,경기도,용인시 처인구 포곡읍 성산로 518,37.2790710329664,127.199561692515,09:00 ~ 18:00
포천점 블루핸즈,현대,고전압배터리 제외 전 작업 수리 가능,031-534-3989,경기도,포천시 호국로 1083,37.8608502722298,127.170780773161,N
하대원중부점 블루핸즈,현대,고전압배터리 제외 전 작업 수리 가능,031-757-8203,경기도,성남시 중원구 둔촌대로 317-1,37.4307955725094,127.153253389245,N
하리점 블루핸즈,현대,고전압배터리 제외 전 작업 수리 가능,031-886-7942,경기도,여주시 여흥로 18-5,37.2988862045336,127.626650289404,08:30 ~ 17:50
학운점 블루핸즈,현대,고전압배터리 제외 전 작업 수리 가능,031-981-8206,경기도,김포시 양촌읍 황금로23번길 18-24,37.61929152604502,126.62957584209656,08:30 ~ 17:30
한양자동차공업(주) 블루핸즈,현대,고전압배터리 제외 전 작업 수리 가능,031-541-6600,서울,도봉구 도봉로136다길 32,37.6609192068502,127.043411179053,08:30 ~ 18:00
행신가라뫼점 블루핸즈,현대,고전압배터리 제외 전 작업 수리 가능,031-971-0909,경기도,고양시 덕양구 행신로279번길 7,37.6200856583998,126.84437891960329,08:30 ~ 18:00
향남점 블루핸즈,현대,고전압배터리 제외 전 작업 수리 가능,031-353-2002,경기도,화성시 만세구 향남읍 행정죽전로1길 4,37.12350093511428,126.9204928782904,09:00 ~ 18:00
현대대명모터스,현대,고전압배터리 제외 전 작업 수리 가능,031-407-5333,경기도,안산시 상록구 선진6길 18,37.281424377004896,126.84482634070604,08:30 ~ 17:30
현대야탑써비스(주),현대,고전압배터리 제외 전 작업 수리 가능,031-701-5566,경기도,성남시 분당구 판교로 582,37.4074313945426,127.137790337137,08:00 ~ 18:00
현대원천서비스(주),현대,고전압배터리 제외 전 작업 수리 가능,031-213-0004,,,37.2053773552205,126.785990481218,N
상동동부점 블루핸즈,현대,고전압배터리 제외 전 작업 수리 가능,032-651-8204,경기도,부천시 원미구 부일로276번길 12,37.4878845242805,126.760528621217,09:00 ~ 18:00
상하점 블루핸즈,현대,고전압배터리 제외 전 작업 수리 가능,031-281-0018,경기도,용인시 기흥구 중부대로 804,37.2568663836277,127.143120309639,08:30 ~ 17:30
상현점(주) 블루핸즈,현대,고전압배터리 제외 전 작업 수리 가능,031-265-3337,경기도,용인시 수지구 수지로 106,37.3119524881124,127.07836725043266,N
서천점 블루핸즈,현대,고전압배터리 제외 전 작업 수리 가능,031-203-8572,경기도,용인시 기흥구 서그내로53번길 3-29,37.2429368208945,127.07640004812,08:30 ~ 17:30
서하남로점 블루핸즈,현대,고전압배터리 제외 전 작업 수리 가능,02-483-9944,경기도,하남시 서하남로 264,37.5171141198526,127.172795082194,N
서현자동차서비스(주) 블루핸즈,현대,고전압배터리 제외 전 작업 수리 가능,031-702-4040,경기도,성남시 분당구 판교로 582,37.4074313945426,127.137790337137,08:00 ~ 18:00
석모점 블루핸즈,현대,고전압배터리 제외 전 작업 수리 가능,031-982-8904,경기도,김포시 양촌읍 김포한강4로 260,37.6516747805757,126.654589921885,N
선부점 블루핸즈,현대,고전압배터리 제외 전 작업 수리 가능,031-482-4300,경기도,안산시 단원구 화정천서로2안길 1,37.3425186040606,126.817417403075,N
성남점 블루핸즈,현대,고전압배터리 제외 전 작업 수리 가능,031-753-4533,경기도,성남시 중원구 산성대로 64-1,37.4327734128405,127.126510827894,09:00 ~ 18:00
성남현대자동차써비스,현대,고전압배터리 제외 전 작업 수리 가능,031-722-2481,경기도,성남시 분당구 돌마로 569,37.383871232232,127.138009177018,08:00 ~ 18:00
성석동부점 블루핸즈,현대,고전압배터리 제외 전 작업 수리 가능,031-977-0809,경기도,고양시 일산동구 성석로 325,37.7048452548818,126.794305881359,N
세교남부점 블루핸즈,현대,고전압배터리 제외 전 작업 수리 가능,031-618-6060,경기도,화성시 동탄구 동탄기흥로257번가길 39,37.1798228010962,127.091614310884,08:30 ~ 18:00
소하점 블루핸즈,현대,고전압배터리 제외 전 작업 수리 가능,02-892-8572,경기도,광명시 구름산로 35,37.45811045306982,126.87741147013716,09:00 ~ 18:00
송내점 블루핸즈,현대,고전압배터리 제외 전 작업 수리 가능,031-859-0482,경기도,부천시 원미구 부일로276번길 12,37.4878845242805,126.760528621217,09:00 ~ 18:00
송우점 블루핸즈,현대,고전압배터리 제외 전 작업 수리 가능,031-542-9090,경기도,포천시 소흘읍 호국로484번길 24,37.8152367424648,127.137813409385,09:00 ~ 18:00
송전점 블루핸즈,현대,고전압배터리 제외 전 작업 수리 가능,031-323-5300,경기도,용인시 처인구 이동읍 백옥대로 20,37.141814946871,127.196996747787,09:00 ~ 17:00
수동현대서비스,현대,고전압배터리 제외 전 작업 수리 가능,031-559-5599,경기도,남양주시 수동면 비룡로 544,37.6883885531226,127.32286681964868,08:30 ~ 18:00
수지점 블루핸즈,현대,고전압배터리 제외 전 작업 수리 가능,031-261-1144,경기도,용인시 수지구 신수로683번길 23,37.3306948885596,127.099886355151,08:30 ~ 18:00
수택점 블루핸즈,현대,고전압배터리 제외 전 작업 수리 가능,031-565-8204,경기도,구리시 벌말로 122,37.5873672455598,127.148537729591,09:00 ~ 18:30
신곡남부점 블루핸즈,현대,고전압배터리 제외 전 작업 수리 가능,031-844-8200,경기도,의정부시 동일로 512,37.7340285780772,127.058696246946,08:30 ~ 18:00
신곡점 블루핸즈,현대,고전압배터리 제외 전 작업 수리 가능,031-821-8204,경기도,의정부시 부용로 9,37.7483247859947,127.059433721883,08:30 ~ 18:00
신봉점 블루핸즈,현대,고전압배터리 제외 전 작업 수리 가능,031-264-1722,경기도,용인시 수지구 수지로227번길 2,37.3213181105923,127.084512196543,08:30 ~ 18:00
신성자동차정비공장 블루핸즈,현대,고전압배터리 제외 전 작업 수리 가능,031-953-7788,경기도,파주시 문산읍 문향로 92,37.8595363050356,126.786971050069,N
신천점 블루핸즈,현대,고전압배터리 제외 전 작업 수리 가능,031-313-2040,대구광역시,동구 동부로 51,35.8751325524544,128.617944483772,08:30 ~ 18:00
실촌점 블루핸즈,현대,고전압배터리 제외 전 작업 수리 가능,031-764-6611,경기도,광주시 곤지암읍 대석동길 113,37.3512099301818,127.348696831967,08:30 ~ 18:00
안성서부점 블루핸즈,현대,고전압배터리 제외 전 작업 수리 가능,010-2231-3993,경기도,안성시 대덕면 중앙로 30,37.013287859142,127.232104167665,08:30 ~ 18:00
안양북부점 블루핸즈,현대,고전압배터리 제외 전 작업 수리 가능,031-442-8204,경기도,안양시 만안구 만안로 290-1,37.4056096768,126.918795200717,09:00 ~ 18:00
안양현대서비스(주),현대,고전압배터리 제외 전 작업 수리 가능,031-422-6300,경기도,안양시 동안구 시민대로 63,37.38448318061114,126.94123630819333,09:00 ~ 18:00
안중현대서비스(주),현대,고전압배터리 제외 전 작업 수리 가능,031-682-1900,경기도,평택시 안중읍 안중6길 2-1,36.9904819710948,126.940913992982,00:00 ~ 24:00
양주샘내점 블루핸즈,현대,고전압배터리 제외 전 작업 수리 가능,031-843-2880,경기도,양주시 평화로 1307,37.8076863592846,127.04576809882,N
양촌점 블루핸즈,현대,고전압배터리 제외 전 작업 수리 가능,031-996-1611,경기도,김포시 양촌읍 양곡4로 40,37.6529735106654,126.620982074935,08:30 ~ 18:00
여주점 블루핸즈,현대,고전압배터리 제외 전 작업 수리 가능,031-886-7282,경기도,여주시 세종로 82,37.2907383734047,127.634576113408,휴무일
역동점 블루핸즈,현대,고전압배터리 제외 전 작업 수리 가능,031-797-7744,경기도,광주시 문화로 39,37.407080749650525,127.25461688355166,08:30 ~ 18:30
연천점 블루핸즈,현대,고전압배터리 제외 전 작업 수리 가능,031-834-0174,경기도,연천군 전곡읍 은대성로 117,38.0252609573925,127.060308196023,09:00 ~ 18:00
오남서부점 블루핸즈,현대,고전압배터리 제외 전 작업 수리 가능,031-575-8672,경기도,남양주시 오남읍 진건오남로759번길 101,37.6961276509091,127.197125212642,N
오남점 블루핸즈,현대,고전압배터리 제외 전 작업 수리 가능,031-575-8204,경기도,남양주시 오남읍 진건오남로759번길 101,37.6961276509091,127.197125212642,N
오산점 블루핸즈,현대,고전압배터리 제외 전 작업 수리 가능,031-377-8844,경기도,양주시 백석읍 권율로 1385,37.80717145829554,126.97756465690314,08:30 ~ 19:30
왕곡점 블루핸즈,현대,고전압배터리 제외 전 작업 수리 가능,031-429-4442,전라남도,나주시 예향로 4111,35.0201157120949,126.71331259152952,08:00 ~ 18:00
용문점 블루핸즈,현대,고전압배터리 제외 전 작업 수리 가능,031-774-5911,대전광역시,서구 도산로 339,36.3357949150491,127.389516125378,N
용현점 블루핸즈,현대,고전압배터리 제외 전 작업 수리 가능,031-851-5182,인천광역시,미추홀구 토금중로11번길 10,37.45436785928311,126.63536138408313,09:00 ~ 18:00
우만점 블루핸즈,현대,고전압배터리 제외 전 작업 수리 가능,031-251-0056,경기도,수원시 팔달구 경수대로 678,37.2858550389796,127.027695911062,08:30 ~ 18:30
우정점 블루핸즈,현대,고전압배터리 제외 전 작업 수리 가능,031-358-4499,경기도,화성시 만세구 우정읍 기아자동차로 541,37.06372866397381,126.79400563158153,N
운정점 블루핸즈,현대,고전압배터리 제외 전 작업 수리 가능,031-963-7773,경기도,파주시 교하로159번길 55,37.7240855145129,126.740841133152,08:30 ~ 18:30
운중점 블루핸즈,현대,고전압배터리 제외 전 작업 수리 가능,031-708-7117,경기도,성남시 분당구 산운로32번길 10,37.391855676819,127.065027857448,N
원곡점 블루핸즈,현대,고전압배터리 제외 전 작업 수리 가능,031-494-4674,경기도,안산시 단원구 연수원로 17,37.315396311167,126.796748119816,08:30 ~ 18:00
삼원로점 블루핸즈,현대,고전압배터리 제외 전 작업 수리 가능,02-371-0808,경기도,고양시 덕양구 삼원로 34,37.6427229640212,126.8755451195,N
삼평점 블루핸즈,현대,고전압배터리 제외 전 작업 수리 가능,031-8022-8204,경기도,성남시 분당구 판교역로241번길 22,37.4028356590015,127.106966453087,08:30 ~ 18:00
금강자동차정비공업사 블루핸즈,현대,고전압배터리 제외 전 작업 수리 가능,031-655-9535,경기도,안성시 공도읍 서동대로 4344,37.005411123189326,127.18517414372612,08:30 ~ 17:30
금곡점 블루핸즈,현대,고전압배터리 제외 전 작업 수리 가능,031-591-6002,경기도,남양주시 경춘로 941,37.6337139971022,127.206145920151,N
금정점 블루핸즈,현대,고전압배터리 제외 전 작업 수리 가능,031-456-4567,부산광역시,금정구 금정로 206,35.24246179948934,129.0892795845363,N
금촌북부점 블루핸즈,현대,고전압배터리 제외 전 작업 수리 가능,031-945-8204,경기도,파주시 시청로 229,37.7710500411313,126.773578947445,N
금촌점 블루핸즈,현대,고전압배터리 제외 전 작업 수리 가능,031-945-6622,경기도,파주시 평화로 4,37.75841282804102,126.77342568610466,08:30 ~ 18:00
낙양점 블루핸즈,현대,고전압배터리 제외 전 작업 수리 가능,031-821-5682,경기도,의정부시 용민로303번길 10,37.7519055851668,127.103295738681,N
남양점 블루핸즈,현대,고전압배터리 제외 전 작업 수리 가능,031-355-9800,경기도,화성시 만세구 남양읍 수작이길 115,37.2131326652626,126.814859073473,08:30 ~ 18:00
내촌점 블루핸즈,현대,고전압배터리 제외 전 작업 수리 가능,031-534-1009,경기도,포천시 내촌면 금강로 2008,37.7591881564858,127.221573221224,08:30 ~ 18:00
능곡점 블루핸즈,현대,고전압배터리 제외 전 작업 수리 가능,031-316-1190,경기도,고양시 덕양구 토당로 20,37.6184121574071,126.82301994857,08:30 ~ 18:00
능동점 블루핸즈,현대,고전압배터리 제외 전 작업 수리 가능,031-613-4442,경기도,화성시 동탄구 동탄하나2길 10,37.21423951428361,127.06229064628614,08:30 ~ 18:30
당정점 블루핸즈,현대,고전압배터리 제외 전 작업 수리 가능,031-386-8204,경기도,군포시 한세로78번길 37,37.3457911090478,126.95766924516,08:30 ~ 18:30
대야점 블루핸즈,현대,고전압배터리 제외 전 작업 수리 가능,031-315-5475,전북특별자치도,군산시 개정면 번영로 830,35.9486864830522,126.8036445994,N
덕소점 블루핸즈,현대,고전압배터리 제외 전 작업 수리 가능,031-577-2148,경기도,남양주시 와부읍 수레로 74,37.59043049683726,127.2182096077286,N
덕은점 블루핸즈,현대,고전압배터리 제외 전 작업 수리 가능,02-353-8290,경기도,고양시 덕양구 덕은로 37,37.5866573158144,126.876530702363,08:30 ~ 17:30
덕풍점 블루핸즈,현대,고전압배터리 제외 전 작업 수리 가능,031-796-8204,경기도,하남시 덕풍동로 67,37.5484923597046,127.205417604354,N
도당점 블루핸즈,현대,고전압배터리 제외 전 작업 수리 가능,032-667-8272,경기도,부천시 원미구 부천로 257,37.50707629994431,126.78558232884828,08:30 ~ 18:00
동남공업사 블루핸즈,현대,고전압배터리 제외 전 작업 수리 가능,031-535-5200,경기도,포천시 신북면 중앙로335번길 1,37.9141849034382,127.213549218093,08:30 ~ 18:00
동백점 블루핸즈,현대,고전압배터리 제외 전 작업 수리 가능,031-282-8293,경기도,용인시 기흥구 동백죽전대로 547,37.2871111193596,127.150056550187,08:30 ~ 17:30
동진자동차 블루핸즈,현대,고전압배터리 제외 전 작업 수리 가능,031-941-6644,부산광역시,기장군 정관읍 농공길 107,35.324255917354,129.201199359977,08:30 ~ 17:30
동탄중부점 블루핸즈,현대,고전압배터리 제외 전 작업 수리 가능,031-378-6003,경기도,화성시 동탄구 동탄대로14길 5-3,37.18515067384031,127.10163365015752,08:30 ~ 18:00
동패점 블루핸즈,현대,고전압배터리 제외 전 작업 수리 가능,031-947-7884,경기도,파주시 동패로7번길 52,37.7092233009818,126.734451408935,08:30 ~ 18:00
두원현대서비스,현대,고전압배터리 제외 전 작업 수리 가능,031-948-2121,경기도,파주시 조리읍 통일로 477-14,37.7555205299267,126.801278416575,08:30 ~ 18:00
매송점 블루핸즈,현대,고전압배터리 제외 전 작업 수리 가능,031-292-2244,경기도,화성시 효행구 매송면 화성로 2371-4,37.2497748082744,126.924945623085,N
매탄점 블루핸즈,현대,고전압배터리 제외 전 작업 수리 가능,031-213-1717,경기도,수원시 영통구 중부대로 384,37.27109894351365,127.05719622457627,08:00 ~ 16:00
모현점 블루핸즈,현대,고전압배터리 제외 전 작업 수리 가능,031-332-6400,경기도,용인시 처인구 모현읍 백옥대로 2529-1,37.3491082959256,127.249006959707,08:30 ~ 18:00
목감점 블루핸즈,현대,고전압배터리 제외 전 작업 수리 가능,031-484-8285,경기도,시흥시 수인로 2331-17,37.38666737698311,126.86145159073924,08:30 ~ 18:00
문산점 블루핸즈,현대,고전압배터리 제외 전 작업 수리 가능,031-952-7304,경기도,파주시 파주읍 충현로 42-8,37.84932656934672,126.79345181985278,08:30 ~ 13:00
문형점 블루핸즈,현대,고전압배터리 제외 전 작업 수리 가능,031-766-4878,경기도,광주시 오포로520번길 12,37.3449711414941,127.213813680107,08:30 ~ 18:00
미조프라자 블루핸즈,현대,고전압배터리 제외 전 작업 수리 가능,031-709-8204,경기도,성남시 분당구 판교로479번길 15,37.4057686453844,127.126004581864,N
민락점 블루핸즈,현대,고전압배터리 제외 전 작업 수리 가능,031-851-4119,부산광역시,수영구 광남로 264,35.1596552673915,129.127465753104,N
박달점 블루핸즈,현대,고전압배터리 제외 전 작업 수리 가능,031-448-0951,경기도,안양시 만안구 양화로151번길 10,37.4059766094715,126.908019554385,N
반송동부점 블루핸즈,현대,고전압배터리 제외 전 작업 수리 가능,031-8015-3352,경기도,화성시 동탄구 10용사3길 4,37.1945457748655,127.066286429708,08:30 ~ 18:00
반송점(주) 블루핸즈,현대,고전압배터리 제외 전 작업 수리 가능,031-8003-8272,경기도,화성시 동탄구 10용사로 416,37.1993301241843,127.063429569259,N
반송중부점 블루핸즈,현대,고전압배터리 제외 전 작업 수리 가능,031-8015-1239,경기도,화성시 동탄구 노작로3길 37,37.1962689718767,127.077528905158,N
반월점 블루핸즈,현대,고전압배터리 제외 전 작업 수리 가능,031-273-7600,경기도,안산시 상록구 반월로 34,37.30288861840717,126.90402376997748,08:30 ~ 18:00
반월점 블루핸즈,현대,고전압배터리 제외 전 작업 수리 가능,031-501-0093,경기도,안산시 상록구 반월로 34,37.30288861840717,126.90402376997748,08:30 ~ 18:00
발안점 블루핸즈,현대,고전압배터리 제외 전 작업 수리 가능,031-354-8204,경기도,화성시 만세구 향남읍 발안만세길 67,37.1296388507345,126.90008590948,08:30 ~ 18:00
백석동부점 블루핸즈,현대,고전압배터리 제외 전 작업 수리 가능,031-904-2839,경기도,고양시 일산동구 백석로85번길 5-4,37.648077353673,126.786693762386,09:00 ~ 18:00
별내점 블루핸즈,현대,고전압배터리 제외 전 작업 수리 가능,031-572-2233,경기도,남양주시 두물로27번길 5,37.65629948377,127.127351490174,08:30 ~ 18:00
보라점 블루핸즈,현대,고전압배터리 제외 전 작업 수리 가능,031-281-2221,경기도,용인시 기흥구 민속촌로 17,37.2552502191374,127.107000911508,08:30 ~ 17:30
복정남부점 블루핸즈,현대,고전압배터리 제외 전 작업 수리 가능,031-753-7300,경기도,성남시 수정구 복정로 24,37.45514711237704,127.1276120409837,08:30 ~ 18:00
본오점 블루핸즈,현대,고전압배터리 제외 전 작업 수리 가능,031-418-9759,경기도,안산시 상록구 충장로 74,37.288345680356,126.857343351435,09:00 ~ 18:00
봉담남부점 블루핸즈,현대,고전압배터리 제외 전 작업 수리 가능,031-278-8204,경기도,화성시 효행구 봉담읍 삼천병마로 1307-9,37.221862960715,126.950360771642,09:00 ~ 17:30
봉담점 블루핸즈,현대,고전압배터리 제외 전 작업 수리 가능,031-898-8204,경기도,화성시 효행구 봉담읍 와우안길 108,37.2206081739774,126.97415661547822,09:00 ~ 18:00
부광모터스(주) 블루핸즈,현대,고전압배터리 제외 전 작업 수리 가능,031-442-3113,경기도,파주시 월롱면 도감로 164,37.79137432588784,126.80287405892224,08:30 ~ 18:00
부발점 블루핸즈,현대,고전압배터리 제외 전 작업 수리 가능,031-637-8504,경기도,이천시 부발읍 경충대로 1754,37.2354793366559,127.519342854396,08:30 ~ 18:00
북부일산자동차서비스(주) 블루핸즈,현대,고전압배터리 제외 전 작업 수리 가능,031-922-9000,경기도,고양시 일산서구 경의로 939,37.7013514945565,126.75920403489,N
분당점(주) 블루핸즈,현대,고전압배터리 제외 전 작업 수리 가능,031-707-7722,경기도,성남시 분당구 돌마로 569,37.383871232232,127.138009177018,08:00 ~ 18:00
비산점 블루핸즈,현대,고전압배터리 제외 전 작업 수리 가능,031-384-2853,대구광역시,서구 달서천로 337-1,35.88478425220308,128.5710098011219,09:00 ~ 17:30
사동중앙점 블루핸즈,현대,고전압배터리 제외 전 작업 수리 가능,031-408-8572,경기도,안산시 상록구 항가울로 170,37.2960079110541,126.842960275628,N
사우점블루핸즈 블루핸즈,현대,고전압배터리 제외 전 작업 수리 가능,031-997-1900,경기도,김포시 중구로 14,37.6225850368244,126.711348274937,08:30 ~ 17:30
산본동부점 블루핸즈,현대,고전압배터리 제외 전 작업 수리 가능,031-451-9844,경기도,군포시 엘에스로182번길 36,37.3774572635956,126.941781477754,08:30 ~ 18:00
산본점 블루핸즈,현대,고전압배터리 제외 전 작업 수리 가능,031-397-7113,경기도,군포시 고산로 735-3,37.3747632275524,126.938283619192,08:30 ~ 18:00
산성점 블루핸즈,현대,고전압배터리 제외 전 작업 수리 가능,031-744-8204,경기도,성남시 수정구 희망로 528,37.45064372803096,127.15208234979453,N
삼송점 블루핸즈,현대,고전압배터리 제외 전 작업 수리 가능,02-381-8066,경기도,고양시 덕양구 삼원로 34,37.6427229640212,126.8755451195,N
삼송현대서비스(주),현대,고전압배터리 제외 전 작업 수리 가능,02-381-9955,경기도,고양시 덕양구 큰골길 10,37.66477866127134,126.8956259922426,08:30 ~ 18:00
신내점 블루핸즈,현대,고전압배터리 제외 전 작업 수리 가능,02-495-8664,서울,중랑구 봉화산로 226,37.60769603813473,127.09785918791168,08:30 ~ 19:30
월곡점 블루핸즈,현대,고전압배터리 제외 전 작업 수리 가능,02-943-8204,서울,성북구 화랑로 183,37.60768975604457,127.05052418902578,08:30 ~ 18:00
창동점 블루핸즈,현대,고전압배터리 제외 전 작업 수리 가능,02-997-8204,서울,도봉구 도봉로 530,37.65234927454262,127.03754979932202,08:30 ~ 18:30
풍납점 블루핸즈,현대,고전압배터리 제외 전 작업 수리 가능,02-487-7814,서울,송파구 토성로 49,37.5296138768312,127.115899298236,08:30 ~ 19:30
현대강남자동차써비스(주),현대,고전압배터리 제외 전 작업 수리 가능,02-575-1900,서울,서초구 마방로 26,37.47480662689049,127.04148769354106,08:30 ~ 18:30
서창점 블루핸즈,현대,고전압배터리 제외 전 작업 수리 가능,044-865-8204,광주광역시,서구 풍서좌로 247,35.126691544326206,126.84260638578586,N
(주)만안자동차정비써비스 블루핸즈,현대,고전압배터리 제외 전 작업 수리 가능,031-447-8400,경기도,안양시 만안구 박달로 473,37.40270793575228,126.90489163481789,08:30 ~ 18:30
(주)안산모터스 블루핸즈,현대,고전압배터리 제외 전 작업 수리 가능,031-493-5523,경기도,안산시 단원구 연수원로 17,37.315396311167,126.796748119816,08:30 ~ 18:00
(주)은현점 블루핸즈,현대,고전압배터리 제외 전 작업 수리 가능,031-859-2556,경기도,양주시 은현면 화합로 976,37.8586931187915,127.028286129183,08:30 ~ 18:00
(주)의정부현대서비스,현대,고전압배터리 제외 전 작업 수리 가능,031-879-7700,경기도,의정부시 입석로 76,37.7555858471949,127.017548165905,08:30 ~ 18:00
(주)현대북수원서비스,현대,고전압배터리 제외 전 작업 수리 가능,031-207-0070,경기도,수원시 장안구 천천로 106,37.3009405168363,126.983622763134,N
(주)현대시화모터스,현대,고전압배터리 제외 전 작업 수리 가능,031-497-5555,경기도,시흥시 군자천로 271,37.3419514094949,126.730030736083,08:30 ~ 18:00
(주)현대장호원서비스,현대,고전압배터리 제외 전 작업 수리 가능,031-643-0080,경기도,이천시 장호원읍 서동대로 8769-1,37.1157932530242,127.609129661575,08:30 ~ 18:00
(주)화성현대서비스,현대,고전압배터리 제외 전 작업 수리 가능,031-356-6200,경기도,화성시 만세구 송산면 송산로 84,37.21738980027961,126.72904890412016,08:30 ~ 18:30
가능점 블루핸즈,현대,고전압배터리 제외 전 작업 수리 가능,031-879-0404,경기도,의정부시 체육로 16,37.7522996665755,127.03206733257,08:30 ~ 18:00
옥정현대서비스,현대,모든 수리,031-857-5580,경기도,양주시 율정로 257-14,37.8176627690621,127.103796161605,08:30 ~ 18:00
가람로중앙점 블루핸즈,현대,고전압배터리 제외 전 작업 수리 가능,031-947-1456,경기도,파주시 가람로21번길 7-20,37.7341445525263,126.751165829512,08:30 ~ 18:00
가산현대서비스㈜,현대,고전압배터리 제외 전 작업 수리 가능,031-542-1111,서울,금천구 가산로 29,37.4711493354161,126.899764260583,N
가좌점 블루핸즈,현대,고전압배터리 제외 전 작업 수리 가능,031-923-8210,인천광역시,서구 건지로 395-1,37.495879099609,126.685565214405,N
가평점 블루핸즈,현대,고전압배터리 제외 전 작업 수리 가능,031-582-2119,경기도,가평군 가평읍 광장로 21,37.8258448731744,127.509513523315,08:30 ~ 18:00
거모점 블루핸즈,현대,고전압배터리 제외 전 작업 수리 가능,031-493-4946,경기도,시흥시 군자로 532,37.3429887996602,126.786142284796,N
경기자동차공업사 블루핸즈,현대,고전압배터리 제외 전 작업 수리 가능,031-206-1661,경기도,용인시 기흥구 중부대로 14-9,37.2669439368844,127.071066883892,08:30 ~ 17:30
고색점 블루핸즈,현대,고전압배터리 제외 전 작업 수리 가능,031-292-9283,경기도,화성시 효행구 봉담읍 와우안길 108,37.2206081739774,126.97415661547822,09:00 ~ 18:00
고양점 블루핸즈,현대,고전압배터리 제외 전 작업 수리 가능,031-963-3377,경기도,고양시 덕양구 호국로 1787,37.71041943486613,126.90633015637717,09:00 ~ 18:00
고잔중부점 블루핸즈,현대,고전압배터리 제외 전 작업 수리 가능,031-439-6776,경기도,안산시 단원구 화정천동로 96,37.31355910625162,126.82191411267156,N
곡반점 블루핸즈,현대,고전압배터리 제외 전 작업 수리 가능,031-216-2820,경기도,수원시 권선구 곡반정로 57,37.2340486199835,127.027969945965,08:30 ~ 18:00
과천점 블루핸즈,현대,고전압배터리 제외 전 작업 수리 가능,02-503-8204,경기도,과천시 상하벌로 4,37.449214357927,126.999430413846,N
관산점 블루핸즈,현대,고전압배터리 제외 전 작업 수리 가능,031-962-3411,경기도,고양시 덕양구 통일로754번길 25-5,37.688572338179405,126.86674204631446,N
관양점 블루핸즈,현대,고전압배터리 제외 전 작업 수리 가능,031-425-2065,경기도,안양시 동안구 시민대로 367,37.39692922895431,126.97095322826908,08:30 ~ 18:30
관양중부점 블루핸즈,현대,고전압배터리 제외 전 작업 수리 가능,031-387-8812,경기도,안양시 동안구 관악대로 277,37.40280469576109,126.9536932115539,08:30 ~ 20:00
광명남부점 블루핸즈,현대,고전압배터리 제외 전 작업 수리 가능,02-2619-0050,경기도,광명시 범안로 649,37.4421935240778,126.845448700126,N
광적서부점 블루핸즈,현대,고전압배터리 제외 전 작업 수리 가능,031-855-0408,경기도,의정부시 서부로 526,37.74369426998879,127.025738259475,N
광적점 블루핸즈,현대,고전압배터리 제외 전 작업 수리 가능,031-836-8804,경기도,양주시 광적면 부흥로 947,37.80974300165745,126.99451389877638,N
광탄점 블루핸즈,현대,고전압배터리 제외 전 작업 수리 가능,031-948-8260,경기도,파주시 광탄면 동거리길 42,37.7812373880016,126.849790152999,N
구갈점 블루핸즈,현대,고전압배터리 제외 전 작업 수리 가능,031-283-2065,경기도,용인시 기흥구 중부대로 523,37.27417484165872,127.12274065275506,09:00 ~ 17:00
구리현대자동차공업사,현대,고전압배터리 제외 전 작업 수리 가능,031-565-9191,경기도,구리시 아차산로 399,37.5907078143972,127.130505099623,08:30 ~ 17:30
구미점 블루핸즈,현대,고전압배터리 제외 전 작업 수리 가능,031-717-3849,경상북도,구미시 비산로 45,36.120355774137344,128.3764332604333,09:00 ~ 18:00
구성점 블루핸즈,현대,고전압배터리 제외 전 작업 수리 가능,031-283-5151,경기도,용인시 기흥구 마북로 179,37.3057492253092,127.12510995244357,N
군문점 블루핸즈,현대,고전압배터리 제외 전 작업 수리 가능,031-658-8572,경기도,평택시 신평로 67,36.9730525370106,127.105517454913,08:30 ~ 18:00
권선점 블루핸즈,현대,고전압배터리 제외 전 작업 수리 가능,031-213-7114,경기도,수원시 권선구 세권로 133,37.2571748172701,127.018996518352,09:00 ~ 18:00
개금점 블루핸즈,현대,고전압배터리 제외 전 작업 수리 가능,051-896-3595,부산광역시,부산진구 백양대로 249,35.15611672438241,129.0239772560795,08:30 ~ 18:30
거제점 블루핸즈,현대,고전압배터리 제외 전 작업 수리 가능,051-502-8207,경상남도,거제시 연초면 연하해안로 316,34.90407376134669,128.6238477937956,09:00 ~ 18:00
광안서부점 블루핸즈,현대,고전압배터리 제외 전 작업 수리 가능,051-752-6883,부산광역시,수영구 수영로 531,35.15321400876098,129.1117009144891,08:30 ~ 18:00
구서점 블루핸즈,현대,고전압배터리 제외 전 작업 수리 가능,051-518-8204,부산광역시,금정구 금정로 206,35.24246179948934,129.0892795845363,N
구포점 블루핸즈,현대,고전압배터리 제외 전 작업 수리 가능,051-343-8204,부산광역시,북구 백양대로1064번길 4,35.1997411838756,128.997618949737,N
금곡점 블루핸즈,현대,고전압배터리 제외 전 작업 수리 가능,051-332-0303,경기도,남양주시 경춘로 941,37.6337139971022,127.206145920151,N
기장교리점 블루핸즈,현대,고전압배터리 제외 전 작업 수리 가능,051-723-0008,부산광역시,기장군 기장읍 기장대로 447,35.23570661544392,129.2172363923233,N
기장점 블루핸즈,현대,고전압배터리 제외 전 작업 수리 가능,051-722-8383,부산광역시,기장군 기장읍 기장대로 447,35.23570661544392,129.2172363923233,N
남산점 블루핸즈,현대,고전압배터리 제외 전 작업 수리 가능,051-517-0304,서울,성동구 독서당로 177,37.5418121051195,127.011147808459,08:30 ~ 18:00
남천점 블루핸즈,현대,고전압배터리 제외 전 작업 수리 가능,051-626-8204,충청북도,제천시 의병대로 134,37.1344629597872,128.21552375063135,N
남항점 블루핸즈,현대,고전압배터리 제외 전 작업 수리 가능,051-415-1756,인천광역시,중구 축항대로290번길 120,37.43868535534321,126.6211852203714,08:30 ~ 18:00
다대점 블루핸즈,현대,고전압배터리 제외 전 작업 수리 가능,051-263-1230,부산광역시,사하구 다대로 591,35.05365911469573,128.9710316226113,08:30 ~ 18:00
당감점 블루핸즈,현대,고전압배터리 제외 전 작업 수리 가능,051-891-4200,부산광역시,부산진구 백양순환로 52,35.1692581546406,129.033462406242,08:30 ~ 18:30
당리점 블루핸즈,현대,고전압배터리 제외 전 작업 수리 가능,051-205-5656,부산광역시,사하구 낙동대로 360,35.1018562692567,128.978458415898,N
대연남부점 블루핸즈,현대,고전압배터리 제외 전 작업 수리 가능,051-611-8204,부산광역시,남구 유엔로 222,35.1298329760216,129.100486409964,N
대연점 블루핸즈,현대,고전압배터리 제외 전 작업 수리 가능,051-757-0034,부산광역시,남구 진남로 66,35.1382620727894,129.088100296437,08:30 ~ 19:00
대저점 블루핸즈,현대,고전압배터리 제외 전 작업 수리 가능,051-971-5559,부산광역시,강서구 공항앞길221번길 17,35.17286014417905,128.95214683035854,N
덕천남부점 블루핸즈,현대,고전압배터리 제외 전 작업 수리 가능,051-331-8204,부산광역시,북구 만덕1로 87,35.21361507949553,129.02809858796613,08:30 ~ 18:00
덕천서부점 블루핸즈,현대,고전압배터리 제외 전 작업 수리 가능,051-336-8204,부산광역시,북구 금곡대로 89,35.2179162738369,129.005008880907,08:30 ~ 18:30
덕천점 블루핸즈,현대,고전압배터리 제외 전 작업 수리 가능,051-343-4684,부산광역시,북구 덕천로 147,35.21102484808894,129.02046543980842,08:30 ~ 18:30
덕포점 블루핸즈,현대,고전압배터리 제외 전 작업 수리 가능,051-324-8870,부산광역시,사상구 백양대로 690,35.1685423390534,128.988878991799,N
동삼점 블루핸즈,현대,고전압배터리 제외 전 작업 수리 가능,051-405-5000,부산광역시,영도구 절영로 511,35.0726749993933,129.071524185601,09:00 ~ 18:00
망미동부점 블루핸즈,현대,고전압배터리 제외 전 작업 수리 가능,051-758-7080,부산광역시,수영구 좌수영로 113,35.1743142401014,129.11908961417,08:30 ~ 18:00
망미서부점 블루핸즈,현대,고전압배터리 제외 전 작업 수리 가능,051-757-8204,부산광역시,수영구 연수로 322,35.171985022533,129.10569695102,N
명지점 블루핸즈,현대,고전압배터리 제외 전 작업 수리 가능,051-271-3535,부산광역시,강서구 명지새동네길1번길 12,35.1090992125285,128.931244116679,N
모라점 블루핸즈,현대,고전압배터리 제외 전 작업 수리 가능,051-305-8787,부산광역시,사상구 사상로 501,35.1892880518344,128.988177071584,N
문현점 블루핸즈,현대,고전압배터리 제외 전 작업 수리 가능,051-646-3838,부산광역시,남구 문현로 12,35.1401916334251,129.072084230179,N
민락점 블루핸즈,현대,고전압배터리 제외 전 작업 수리 가능,051-951-0488,부산광역시,수영구 광남로 264,35.1596552673915,129.127465753104,N
반송점 블루핸즈,현대,고전압배터리 제외 전 작업 수리 가능,051-544-8255,경기도,화성시 동탄구 10용사로 416,37.1993301241843,127.063429569259,N
반여중부점 블루핸즈,현대,고전압배터리 제외 전 작업 수리 가능,051-528-8204,부산광역시,해운대구 선수촌로157번길 20,35.2076774203461,129.121607781671,N
범일점 블루핸즈,현대,고전압배터리 제외 전 작업 수리 가능,051-637-8898,부산광역시,동구 중앙대로 498-1,35.1376830285112,129.05684211561,N
부곡점 블루핸즈,현대,고전압배터리 제외 전 작업 수리 가능,051-518-8887,부산광역시,금정구 중앙대로 1594,35.2266821110643,129.089836883427,N
부민점 블루핸즈,현대,고전압배터리 제외 전 작업 수리 가능,051-256-8270,부산광역시,서구 구덕로222번길 16,35.1042293855454,129.02098477922,N
사직점 블루핸즈,현대,고전압배터리 제외 전 작업 수리 가능,051-506-8204,부산광역시,동래구 여고로 32,35.1952743001172,129.067431481052,휴무일
삼락점 블루핸즈,현대,고전압배터리 제외 전 작업 수리 가능,051-303-8572,부산광역시,사상구 운산로 15,35.1696270221821,128.978777876825,N
서대신점 블루핸즈,현대,고전압배터리 제외 전 작업 수리 가능,051-253-8204,부산광역시,서구 대신로 107,35.1169275578928,129.013261353822,N
송정점 블루핸즈,현대,고전압배터리 제외 전 작업 수리 가능,051-704-1335,광주광역시,광산구 송도로 299,35.1399050706571,126.800659655615,08:00 ~ 18:00
신평점 블루핸즈,현대,고전압배터리 제외 전 작업 수리 가능,051-271-8257,부산광역시,사하구 하신중앙로 118,35.089763808827,128.965518042107,08:30 ~ 18:30
안락점 블루핸즈,현대,고전압배터리 제외 전 작업 수리 가능,051-523-8204,부산광역시,동래구 반송로 210,35.19952842906687,129.09776996857414,08:30 ~ 18:00
엄궁점 블루핸즈,현대,고전압배터리 제외 전 작업 수리 가능,051-328-7773,부산광역시,사상구 엄궁남로 1,35.1257139435887,128.968515135744,08:30 ~ 18:30
연지점 블루핸즈,현대,고전압배터리 제외 전 작업 수리 가능,051-803-8204,부산광역시,부산진구 성지로 10-1,35.17157601744855,129.0554480176212,08:30 ~ 18:00
온천점 블루핸즈,현대,고전압배터리 제외 전 작업 수리 가능,051-505-1123,부산광역시,동래구 중앙대로1307번길 6,35.2039361941533,129.07753675826,08:30 ~ 18:00
우암점 블루핸즈,현대,고전압배터리 제외 전 작업 수리 가능,051-642-5546,부산광역시,남구 우암로 264-2,35.1260747834751,129.068558695701,N
장림점 블루핸즈,현대,고전압배터리 제외 전 작업 수리 가능,051-265-8404,부산광역시,사하구 다대로 371,35.06947847295514,128.978068858201,N
재송점 블루핸즈,현대,고전압배터리 제외 전 작업 수리 가능,051-781-7704,부산광역시,해운대구 재반로27번길 37-15,35.18164667232625,129.12501390961427,08:30 ~ 18:00
정관점 블루핸즈,현대,고전압배터리 제외 전 작업 수리 가능,051-727-0996,부산광역시,기장군 정관읍 정관로 873,35.3249834759317,129.207552361657,08:30 ~ 18:00
정관현대서비스,현대,고전압배터리 제외 전 작업 수리 가능,051-727-3500,부산광역시,기장군 정관읍 농공길 107,35.324255917354,129.201199359977,08:30 ~ 17:30
좌동서부점 블루핸즈,현대,고전압배터리 제외 전 작업 수리 가능,051-704-8204,부산광역시,해운대구 양운로 119,35.1731348687114,129.172818368556,08:30 ~ 17:30
좌동점 블루핸즈,현대,고전압배터리 제외 전 작업 수리 가능,051-704-2800,부산광역시,해운대구 좌동로 119,35.1737491536228,129.177549534759,08:30 ~ 18:00
주례점 블루핸즈,현대,고전압배터리 제외 전 작업 수리 가능,051-312-2142,부산광역시,사상구 가야대로 388,35.1510553791186,129.014865623048,09:00 ~ 18:00
중동북부점 블루핸즈,현대,고전압배터리 제외 전 작업 수리 가능,051-747-0771,부산광역시,해운대구 좌동로 42,35.169274707038,129.171394322564,N
중동점 블루핸즈,현대,고전압배터리 제외 전 작업 수리 가능,051-746-1122,경기도,부천시 원미구 장말로 177,37.4933722978728,126.761741404521,08:30 ~ 18:00
청학점 블루핸즈,현대,고전압배터리 제외 전 작업 수리 가능,051-418-8228,경기도,오산시 청학로 66,37.15482146780352,127.06532750742608,08:30 ~ 18:00
하단점 블루핸즈,현대,고전압배터리 제외 전 작업 수리 가능,051-207-0769,부산광역시,사하구 하신번영로 344,35.11158315930672,128.9596877283305,08:30 ~ 18:30
학장점 블루핸즈,현대,고전압배터리 제외 전 작업 수리 가능,051-325-8888,부산광역시,사상구 학장로 159,35.1426643100695,128.984474962281,N
번동점 블루핸즈,현대,고전압배터리 제외 전 작업 수리 가능,02-985-8204,서울,강북구 도봉로 113,37.61904231314483,127.02877616319012,N
월산남부점 블루핸즈,현대,고전압배터리 제외 전 작업 수리 가능,062-362-8504,광주광역시,남구 월산로 47-4,35.14242131620708,126.89944006141764,08:30 ~ 19:00
일곡점 블루핸즈,현대,고전압배터리 제외 전 작업 수리 가능,062-575-8504,광주광역시,북구 일곡택지로 69-1,35.2079949541431,126.89406477298049,N
진월점 블루핸즈,현대,고전압배터리 제외 전 작업 수리 가능,062-676-9114,광주광역시,남구 서문대로627번안길 12,35.11437119039672,126.89660379190178,08:30 ~ 17:00
치평점 블루핸즈,현대,고전압배터리 제외 전 작업 수리 가능,062-373-8572,광주광역시,서구 화정로 80,35.1447182476401,126.866160680206,08:30 ~ 18:00
풍암동부점 블루핸즈,현대,고전압배터리 제외 전 작업 수리 가능,062-682-8204,광주광역시,서구 풍암순환로128번길 81,35.12888169071809,126.88591891751756,08:30 ~ 18:00
하남현대자동차써비스,현대,고전압배터리 제외 전 작업 수리 가능,062-962-2111,경기도,하남시 감일로 166,37.51414538922487,127.1559064444434,08:30 ~ 18:00
학동점 블루핸즈,현대,고전압배터리 제외 전 작업 수리 가능,062-232-8203,서울,강남구 봉은사로 234,37.5081847397077,127.037929875148,N
(주)달성현대서비스,현대,고전압배터리 제외 전 작업 수리 가능,053-636-3100,대구광역시,달성군 논공읍 비슬로350길 4-5,35.770926580092464,128.41724123778025,N
평창점 블루핸즈,현대,고전압배터리 제외 전 작업 수리 가능,033-332-0907,강원특별자치도,평창군 평창읍 서동로 2553,37.367240021709925,128.40110911017837,08:30 ~ 18:00
(주)현대서대구정비센타,현대,고전압배터리 제외 전 작업 수리 가능,053-552-2323,대구광역시,중구 달구벌대로 1955,35.8638612371313,128.57776380411636,N
감삼점 블루핸즈,현대,고전압배터리 제외 전 작업 수리 가능,053-568-8204,대구광역시,서구 와룡로 319,35.861390799379,128.536502304715,09:00 ~ 17:30
고성점 블루핸즈,현대,고전압배터리 제외 전 작업 수리 가능,053-356-0404,대구광역시,북구 옥산로 74,35.88442846374113,128.58362100150987,N
노변점 블루핸즈,현대,고전압배터리 제외 전 작업 수리 가능,053-793-8204,대구광역시,수성구 고산로 69,35.836891601832754,128.70374130107504,N
다사점 블루핸즈,현대,고전압배터리 제외 전 작업 수리 가능,053-631-0365,대구광역시,달성군 다사읍 왕선로 60,35.86470153115478,128.46451708439096,08:30 ~ 18:00
달구벌자동차정비공장 블루핸즈,현대,고전압배터리 제외 전 작업 수리 가능,053-562-2662,대구광역시,서구 와룡로 319,35.861390799379,128.536502304715,09:00 ~ 17:30
대곡점 블루핸즈,현대,고전압배터리 제외 전 작업 수리 가능,053-641-0030,경상북도,김천시 영남대로 1660,36.12837063124458,128.11544235128378,08:30 ~ 16:30
대명남부점 블루핸즈,현대,고전압배터리 제외 전 작업 수리 가능,053-622-8899,대구광역시,남구 현충로 110,35.8425943549108,128.580285310064,N
대명점 블루핸즈,현대,고전압배터리 제외 전 작업 수리 가능,053-624-8204,대구광역시,남구 대명로 28,35.83785264910664,128.56055615812213,N
대명중부점 블루핸즈,현대,고전압배터리 제외 전 작업 수리 가능,053-623-8204,대구광역시,남구 성당로 286,35.8583801042353,128.57456334833455,08:30 ~ 18:00
동천점 블루핸즈,현대,고전압배터리 제외 전 작업 수리 가능,053-323-8204,대구광역시,북구 동천로23길 31,35.94209098400478,128.55693295813973,N
두산점 블루핸즈,현대,고전압배터리 제외 전 작업 수리 가능,053-761-0010,대구광역시,수성구 지범로 41-4,35.826918582301566,128.62629984545868,N
만촌동부점 블루핸즈,현대,고전압배터리 제외 전 작업 수리 가능,053-752-8572,대구광역시,수성구 국채보상로 989,35.86662101024161,128.63857144034105,N
만촌점 블루핸즈,현대,고전압배터리 제외 전 작업 수리 가능,053-759-8204,대구광역시,수성구 달구벌대로 2543,35.85926063172351,128.64093941194977,08:30 ~ 18:00
방촌점 블루핸즈,현대,고전압배터리 제외 전 작업 수리 가능,053-981-8022,대구광역시,동구 화랑로 399,35.87708753322703,128.66784522231237,08:30 ~ 18:00
본리점 블루핸즈,현대,고전압배터리 제외 전 작업 수리 가능,053-523-2211,대구광역시,달서구 구마로 73,35.83772242445554,128.5356229164404,N
봉덕점 블루핸즈,현대,고전압배터리 제외 전 작업 수리 가능,053-472-8204,대구광역시,남구 봉덕로 32,35.84468238574973,128.59385506959455,09:00 ~ 18:00
산격점 블루핸즈,현대,고전압배터리 제외 전 작업 수리 가능,053-957-0188,대구광역시,북구 동북로 192,35.897941036250096,128.6131378915895,N
상동점 블루핸즈,현대,고전압배터리 제외 전 작업 수리 가능,053-761-8572,경기도,부천시 원미구 장말로 174,37.4931329357058,126.761000366575,08:30 ~ 18:00
서변점 블루핸즈,현대,고전압배터리 제외 전 작업 수리 가능,053-939-8572,대구광역시,북구 호국로 237,35.923056001708,128.59903716321932,N
서호점 블루핸즈,현대,고전압배터리 제외 전 작업 수리 가능,053-963-8287,대구광역시,동구 안심로43길 2,35.86641392140517,128.70897747744274,08:30 ~ 18:00
송현중부점 블루핸즈,현대,고전압배터리 제외 전 작업 수리 가능,053-657-8204,대구광역시,달서구 송현로 14,35.821140256791,128.5502208780471,08:30 ~ 18:30
수성중부점 블루핸즈,현대,고전압배터리 제외 전 작업 수리 가능,053-755-8200,대구광역시,수성구 달구벌대로 2356,35.85903502311477,128.6202518511507,09:00 ~ 17:30
시지점 블루핸즈,현대,고전압배터리 제외 전 작업 수리 가능,053-791-2868,대구광역시,수성구 달구벌대로 3018,35.84148692051557,128.6874920919375,09:00 ~ 18:00
신당중부점 블루핸즈,현대,고전압배터리 제외 전 작업 수리 가능,053-583-8205,대구광역시,달서구 달구벌대로 1206,35.851365434533015,128.49927535876256,08:30 ~ 18:00
신신자동차정비공장 블루핸즈,현대,고전압배터리 제외 전 작업 수리 가능,053-471-6611,대구광역시,남구 봉덕로 32,35.84468238574973,128.59385506959455,09:00 ~ 18:00
신천점 블루핸즈,현대,고전압배터리 제외 전 작업 수리 가능,053-952-8204,대구광역시,동구 동부로 51,35.8751325524544,128.617944483772,08:30 ~ 18:00
용산점 블루핸즈,현대,고전압배터리 제외 전 작업 수리 가능,053-643-8572,대구광역시,달서구 새방로 28,35.86111796734668,128.52211670305817,N
월암점 블루핸즈,현대,고전압배터리 제외 전 작업 수리 가능,053-593-8204,대구광역시,달서구 월암로 56,35.8229144583424,128.516975205442,08:30 ~ 18:00
읍내점 블루핸즈,현대,고전압배터리 제외 전 작업 수리 가능,053-324-9909,대구광역시,북구 칠곡중앙대로 667,35.9548349743328,128.554492026741,N
중동중부점 블루핸즈,현대,고전압배터리 제외 전 작업 수리 가능,053-764-6101,대구광역시,수성구 들안로 227,35.8504015654795,128.616343798849,08:30 ~ 17:30
진천점 블루핸즈,현대,고전압배터리 제외 전 작업 수리 가능,053-644-8204,대구광역시,달서구 상화로 167,35.8101019976124,128.532159113781,08:30 ~ 18:30
태전점 블루핸즈,현대,고전압배터리 제외 전 작업 수리 가능,053-313-8572,대구광역시,북구 학정로 113,35.91793333825386,128.55058895715223,08:30 ~ 18:00
평리점 블루핸즈,현대,고전압배터리 제외 전 작업 수리 가능,053-565-8204,대구광역시,서구 서대구로 205,35.87640483462533,128.55443281236276,N
평리중부점 블루핸즈,현대,고전압배터리 제외 전 작업 수리 가능,053-572-8282,대구광역시,서구 서대구로 172,35.87328637776243,128.55544475509126,N
현대동대구서비스,현대,고전압배터리 제외 전 작업 수리 가능,053-963-5000,대구광역시,동구 안심로55길 10,35.86696529589199,128.71644218746962,09:00 ~ 17:00
현대중부서비스,현대,고전압배터리 제외 전 작업 수리 가능,053-985-9600,대구광역시,동구 공항로 139,35.90101801412976,128.6301140682267,09:00 ~ 18:00
현풍점 블루핸즈,현대,고전압배터리 제외 전 작업 수리 가능,053-611-4040,대구광역시,달성군 현풍읍 논공로 60,35.710997693575806,128.44243110360372,08:30 ~ 18:00
현풍현대서비스,현대,고전압배터리 제외 전 작업 수리 가능,053-617-6767,대구광역시,달성군 현풍읍 국가산단북로 360,35.6651314799057,128.4299083896978,09:00 ~ 18:00
화원점 블루핸즈,현대,고전압배터리 제외 전 작업 수리 가능,053-638-8504,대구광역시,달성군 화원읍 비슬로 2408,35.79499063089627,128.48350397224567,08:30 ~ 18:00
효목점 블루핸즈,현대,고전압배터리 제외 전 작업 수리 가능,053-754-4616,대구광역시,동구 동부로 182,35.877573298297925,128.63236062011094,08:30 ~ 18:00
(주)경남정비공업사 블루핸즈,현대,고전압배터리 제외 전 작업 수리 가능,051-313-0501,경상남도,진주시 도동로 154,35.18386950195889,128.12277733652937,09:00 ~ 17:30
가야점 블루핸즈,현대,고전압배터리 제외 전 작업 수리 가능,051-896-7778,부산광역시,부산진구 가야대로 660,35.1556378632095,129.044065356307,08:30 ~ 18:00
강서범방점 블루핸즈,현대,고전압배터리 제외 전 작업 수리 가능,051-832-1133,부산광역시,강서구 가락대로900번길 5,35.1512118194545,128.881660249273,N
강서자동차종합정비 블루핸즈,현대,고전압배터리 제외 전 작업 수리 가능,051-831-2199,부산광역시,강서구 화전산업대로 163,35.1036943357783,128.887164458858,N
경산서비스 블루핸즈,현대,고전압배터리 제외 전 작업 수리 가능,053-852-3800,경상북도,경산시 진량읍 의송길 6,35.863514722771185,128.80383041106018,08:30 ~ 18:00
경주현대서비스(주),현대,고전압배터리 제외 전 작업 수리 가능,054-776-9100,경상북도,경주시 공단로 45,35.874548000484,129.21915002474265,N
고령점 블루핸즈,현대,고전압배터리 제외 전 작업 수리 가능,054-956-5141,경상북도,고령군 대가야읍 대가야로 1421,35.73518242144375,128.27225479549435,N
고아점 블루핸즈,현대,고전압배터리 제외 전 작업 수리 가능,054-482-8383,경상북도,구미시 고아읍 송평로 6,36.16256849847706,128.35432722188534,N
금호점 블루핸즈,현대,고전압배터리 제외 전 작업 수리 가능,054-336-8202,경상북도,영천시 금호읍 금호로 25-1,35.92968079208475,128.864651325666,08:30 ~ 18:30
대신점 블루핸즈,현대,고전압배터리 제외 전 작업 수리 가능,054-241-8272,경상북도,포항시 북구 선착로 2,36.0468794018815,129.364813415682,08:30 ~ 18:00
대이점블루핸즈 블루핸즈,현대,고전압배터리 제외 전 작업 수리 가능,054-283-2211,경상북도,포항시 남구 효자로 134,36.0110715809363,129.34069869552,08:30 ~ 18:00
도량점 블루핸즈,현대,고전압배터리 제외 전 작업 수리 가능,054-442-0083,경상북도,구미시 송선로 495,36.13397622568437,128.32200442606398,N
모전서부점 블루핸즈,현대,고전압배터리 제외 전 작업 수리 가능,054-553-2902,경상북도,문경시 당교로 216,36.58511924773541,128.1866531499635,N
모전점 블루핸즈,현대,고전압배터리 제외 전 작업 수리 가능,054-555-8272,경상북도,문경시 모전로 150,36.59438178269132,128.18906903123033,N
무양점 블루핸즈,현대,고전압배터리 제외 전 작업 수리 가능,054-533-9011,경상북도,상주시 경상대로 3063-9,36.42105876480083,128.150072320786,N
백천점 블루핸즈,현대,고전압배터리 제외 전 작업 수리 가능,053-816-0082,경상북도,경산시 백천길 2,35.8072726384353,128.741498467666,08:30 ~ 18:00
복룡점 블루핸즈,현대,고전압배터리 제외 전 작업 수리 가능,054-532-4700,경상북도,상주시 복룡3길 18,36.4172954471685,128.1729776821065,N
봉곡점 블루핸즈,현대,고전압배터리 제외 전 작업 수리 가능,054-453-7507,경상남도,창원시 의창구 지귀로24번길 14,35.24460055624595,128.65088686977845,N
봉화점 블루핸즈,현대,고전압배터리 제외 전 작업 수리 가능,054-673-8511,경상북도,영주시 원당로247번길 12,36.8313197950054,128.63679834921,08:30 ~ 18:00
북구미현대서비스(주),현대,고전압배터리 제외 전 작업 수리 가능,054-471-9200,경상북도,구미시 산동읍 옥계2공단로 640,36.161778012194944,128.41640909599772,09:00 ~ 17:30
북삼현대써비스,현대,고전압배터리 제외 전 작업 수리 가능,054-974-6662,경상북도,칠곡군 북삼읍 금오대로 120,36.056559530593,128.344865082322,N
사곡점 블루핸즈,현대,고전압배터리 제외 전 작업 수리 가능,054-464-8204,경상북도,구미시 상모로1길 68-1,36.09469790819471,128.35517344803364,N
상도점 블루핸즈,현대,고전압배터리 제외 전 작업 수리 가능,054-272-8205,서울,동작구 상도로 386,37.4945625560816,126.954744816121,N
상주현대서비스,현대,고전압배터리 제외 전 작업 수리 가능,054-535-9003,경상북도,상주시 북상주로 102,36.43852950202483,128.1590244518279,N
서김천현대서비스,현대,고전압배터리 제외 전 작업 수리 가능,054-433-1154,경상북도,김천시 속구미길 65,36.12911132759912,128.13349401409627,N
서안동현대서비스,현대,고전압배터리 제외 전 작업 수리 가능,054-859-3434,경상북도,안동시 풍산읍 풍산태사로 773,36.58938815877968,128.54615338182677,08:30 ~ 17:30
성주점 블루핸즈,현대,고전압배터리 제외 전 작업 수리 가능,054-931-8204,경상북도,성주군 성주읍 성주순환로 226,35.92264727655131,128.29003180171742,08:30 ~ 18:30
송정점 블루핸즈,현대,고전압배터리 제외 전 작업 수리 가능,054-456-0080,광주광역시,광산구 송도로 299,35.1399050706571,126.800659655615,08:00 ~ 18:00
신봉점 블루핸즈,현대,고전압배터리 제외 전 작업 수리 가능,054-535-8510,경기도,용인시 수지구 수지로227번길 2,37.3213181105923,127.084512196543,08:30 ~ 18:00
양덕점 블루핸즈,현대,고전압배터리 제외 전 작업 수리 가능,054-253-8383,경상남도,창원시 마산회원구 양덕남9길 88,35.22424678373906,128.58767973830814,N
영덕점 블루핸즈,현대,고전압배터리 제외 전 작업 수리 가능,054-734-8001,경상북도,영덕군 강구면 동해대로 4571,36.3650191999398,129.37658770587,N
예천점 블루핸즈,현대,고전압배터리 제외 전 작업 수리 가능,054-655-8582,충청남도,서산시 나무장1길 44,36.7721705006478,126.442539151691,08:30 ~ 17:00
옥계점 블루핸즈,현대,고전압배터리 제외 전 작업 수리 가능,054-471-3691,경상북도,구미시 산호대로24길 9-33,36.13642250024424,128.41607093149008,N
옥동점 블루핸즈,현대,고전압배터리 제외 전 작업 수리 가능,054-855-8204,울산광역시,남구 팔등로 3,35.544035992854226,129.30708725570557,08:30 ~ 18:00
왜관점 블루핸즈,현대,고전압배터리 제외 전 작업 수리 가능,054-974-3306,경상북도,칠곡군 왜관읍 관문로 148-5,35.98774324234507,128.41066665862118,08:30 ~ 18:00
외동점 블루핸즈,현대,고전압배터리 제외 전 작업 수리 가능,054-775-7373,경상북도,경주시 외동읍 모화남1길 5,35.67055468284079,129.3367132129978,08:30 ~ 18:00
용상점 블루핸즈,현대,고전압배터리 제외 전 작업 수리 가능,054-822-8505,경상북도,안동시 충효로 4454,36.55061249379225,128.73669969526009,N
울진남부점 블루핸즈,현대,고전압배터리 제외 전 작업 수리 가능,054-782-8206,경상북도,울진군 울진읍 토일1길 70-17,36.978564037750814,129.39574777442107,08:30 ~ 18:30
의성점 블루핸즈,현대,고전압배터리 제외 전 작업 수리 가능,054-833-6600,대구광역시,군위군 군위읍 경북대로 3605,36.2256327436605,128.565673439835,00:00 ~ 24:00
인의점 블루핸즈,현대,고전압배터리 제외 전 작업 수리 가능,054-475-9868,경상북도,구미시 인동15길 9,36.100141145001686,128.42602375693707,08:30 ~ 18:00
장량점 블루핸즈,현대,고전압배터리 제외 전 작업 수리 가능,054-251-8204,경상북도,포항시 북구 장성로 38,36.07957802783249,129.39257936842628,08:30 ~ 18:00
장성점 블루핸즈,현대,고전압배터리 제외 전 작업 수리 가능,054-246-8204,경상북도,포항시 북구 삼흥로 76,36.06866125774137,129.37934981166924,08:30 ~ 18:00
정평점 블루핸즈,현대,고전압배터리 제외 전 작업 수리 가능,053-814-9966,경상북도,경산시 성동로 12,35.83578459293963,128.7257432145237,08:30 ~ 18:00
정하점 블루핸즈,현대,고전압배터리 제외 전 작업 수리 가능,054-857-8272,경상북도,안동시 충효로 4454,36.55061249379225,128.73669969526009,N
진량점 블루핸즈,현대,고전압배터리 제외 전 작업 수리 가능,053-854-4500,경상북도,경산시 진량읍 낙산길 4,35.875218514325,128.81196116349656,08:30 ~ 18:00
태화점 블루핸즈,현대,고전압배터리 제외 전 작업 수리 가능,054-854-3159,경상북도,안동시 경동로 427,36.5690687616057,128.70678787110054,08:30 ~ 18:00
평화점 블루핸즈,현대,고전압배터리 제외 전 작업 수리 가능,054-432-8204,전라남도,목포시 평화로107번길 5,34.798520899282884,126.43545913794632,N
하양점 블루핸즈,현대,고전압배터리 제외 전 작업 수리 가능,053-854-4317,경상북도,경산시 하양읍 대경로 799,35.91528240576695,128.82630705222746,08:30 ~ 18:00
황상점 블루핸즈,현대,고전압배터리 제외 전 작업 수리 가능,054-473-1450,경상북도,구미시 수출대로 526,36.110389971543285,128.42259201427,09:00 ~ 18:00
휴천점 블루핸즈,현대,고전압배터리 제외 전 작업 수리 가능,054-634-5073,경상북도,영주시 구성로294번길 6,36.81949145583652,128.62819958013262,N
두암점 블루핸즈,현대,고전압배터리 제외 전 작업 수리 가능,062-261-6444,광주광역시,북구 면앙로 160,35.17593402230109,126.92894134643132,08:30 ~ 17:30
봉선점 블루핸즈,현대,고전압배터리 제외 전 작업 수리 가능,062-671-2878,광주광역시,남구 제석로 117-2,35.125073777434146,126.90748121600458,08:30 ~ 17:30
산수점 블루핸즈,현대,고전압배터리 제외 전 작업 수리 가능,062-528-8572,광주광역시,동구 필문대로 112,35.160603498639766,126.93010604381725,N
삼각점 블루핸즈,현대,고전압배터리 제외 전 작업 수리 가능,062-574-8572,광주광역시,북구 일곡택지로 69-1,35.2079949541431,126.89406477298049,N
송정점 블루핸즈,현대,고전압배터리 제외 전 작업 수리 가능,062-945-8204,광주광역시,광산구 송도로 299,35.1399050706571,126.800659655615,08:00 ~ 18:00
수완점 블루핸즈,현대,고전압배터리 제외 전 작업 수리 가능,062-961-4111,광주광역시,광산구 수완로74번길 11-38,35.19286035429955,126.8299966616054,08:30 ~ 18:00
쌍촌점 블루핸즈,현대,고전압배터리 제외 전 작업 수리 가능,062-375-8204,광주광역시,서구 천변좌하로484번길 2,35.16756707261583,126.863971813607,09:00 ~ 18:00
양산점 블루핸즈,현대,고전압배터리 제외 전 작업 수리 가능,062-572-8504,광주광역시,북구 하서로 353,35.20663719872134,126.87310740132872,08:30 ~ 16:30
월계첨단점 블루핸즈,현대,고전압배터리 제외 전 작업 수리 가능,062-973-5119,광주광역시,광산구 첨단중앙로124번길 59,35.216672373840574,126.84555215505556,N
오학자동차 블루핸즈,현대,고전압배터리 제외 전 작업 수리 가능,031-885-1901,경기도,여주시 도예로 77,37.3097815320553,127.643408365012,08:30 ~ 18:00
우성현대서비스,현대,고전압배터리 제외 전 작업 수리 가능,031-429-1102,경기도,군포시 공단로 125,37.3563802145395,126.949071346974,N
운천현대서비스,현대,고전압배터리 제외 전 작업 수리 가능,031-531-6228,충청북도,청주시 흥덕구 1순환로 389,36.6555544941012,127.472693442168,N
원동점 블루핸즈,현대,고전압배터리 제외 전 작업 수리 가능,031-373-6660,경기도,오산시 남부대로 323,37.1360680503078,127.070993810867,N
원종점 블루핸즈,현대,고전압배터리 제외 전 작업 수리 가능,032-673-8272,경기도,부천시 오정구 성지로 85,37.5265534155372,126.810996571992,08:30 ~ 18:00
위례점 블루핸즈,현대,고전압배터리 제외 전 작업 수리 가능,031-758-8239,경기도,성남시 수정구 위례서로 34,37.4681676854663,127.137209922292,08:30 ~ 18:00
이화자동차써비스 블루핸즈,현대,고전압배터리 제외 전 작업 수리 가능,031-671-5558,경기도,안성시 보개원삼로 85,37.0115507211989,127.284985194518,08:30 ~ 18:00
일동점 블루핸즈,현대,고전압배터리 제외 전 작업 수리 가능,031-437-3333,경기도,안산시 상록구 성호로 22,37.3085024979711,126.86879755611,N
전곡현대서비스,현대,고전압배터리 제외 전 작업 수리 가능,031-835-1996,경기도,연천군 전곡읍 은대성로 117,38.0252609573925,127.060308196023,09:00 ~ 18:00
태전현대서비스(주),현대,고전압배터리 제외 전 작업 수리 가능,031-763-3332,경기도,광주시 순암로 155,37.3964227608584,127.233131357622,08:30 ~ 18:00
통진점 블루핸즈,현대,고전압배터리 제외 전 작업 수리 가능,031-987-9913,경기도,김포시 통진읍 서암고정로 196,37.7023527584121,126.608714248207,09:00 ~ 18:00
평촌현대서비스(주),현대,고전압배터리 제외 전 작업 수리 가능,031-423-8200,경기도,안양시 동안구 시민대로383번길 23,37.3975972596704,126.972515998767,09:00 ~ 18:00
포승점 블루핸즈,현대,고전압배터리 제외 전 작업 수리 가능,031-681-2263,경기도,평택시 포승읍 평택항로184번길 4-9,36.9748136702994,126.844107862922,08:30 ~ 18:00
하성점 블루핸즈,현대,고전압배터리 제외 전 작업 수리 가능,031-981-9900,경기도,김포시 하성면 월하로 724,37.70948882300108,126.63495983894975,08:30 ~ 18:00
현대1급자동차공업사,현대,고전압배터리 제외 전 작업 수리 가능,031-577-1422,충청남도,공주시 장기로 113,36.48133143952754,127.15199642564924,08:30 ~ 18:00
현대덕이공업사(주),현대,고전압배터리 제외 전 작업 수리 가능,031-917-8231,경기도,고양시 일산서구 탄중로 125,37.69258994202238,126.7589681917892,08:30 ~ 18:00
현대모터스(주),현대,고전압배터리 제외 전 작업 수리 가능,031-676-9800,충청북도,충주시 금가면 금가중앙1길 163,37.029606010852575,127.90703136711544,08:30 ~ 18:00
호원점 블루핸즈,현대,고전압배터리 제외 전 작업 수리 가능,031-837-8205,경기도,의정부시 경의로 33,37.7331285175674,127.039133383739,08:30 ~ 18:00
(주)범어점 블루핸즈,현대,고전압배터리 제외 전 작업 수리 가능,055-385-3377,경상남도,양산시 물금읍 서남3길 11,35.3273029578456,129.000841310242,08:30 ~ 17:30
(주)성산현대서비스,현대,고전압배터리 제외 전 작업 수리 가능,055-261-2119,서울,마포구 모래내로3길 19,37.5656464910218,126.9040611958,08:30 ~ 18:00
(주)창원신일현대서비스,현대,고전압배터리 제외 전 작업 수리 가능,055-292-9500,경상남도,창원시 의창구 차상로 187,35.24088514892491,128.6344657299215,N
구산점 블루핸즈,현대,고전압배터리 제외 전 작업 수리 가능,055-311-0018,서울,은평구 서오릉로 239,37.6159102998494,126.907666436108,08:30 ~ 18:00
남부점 블루핸즈,현대,고전압배터리 제외 전 작업 수리 가능,055-389-0043,경기도,화성시 동탄구 동탄기흥로257번가길 39,37.1798228010962,127.091614310884,08:30 ~ 18:00
남해점 블루핸즈,현대,고전압배터리 제외 전 작업 수리 가능,055-863-3014,경상남도,남해군 남해읍 화전로 6,34.83410770350719,127.89866182922476,08:30 ~ 18:00
내동점 블루핸즈,현대,고전압배터리 제외 전 작업 수리 가능,055-327-8110,경상남도,김해시 금관대로1289번길 7,35.239927091397654,128.860132860608,08:30 ~ 18:00
내이점 블루핸즈,현대,고전압배터리 제외 전 작업 수리 가능,055-356-5151,경상남도,밀양시 시청서길 21,35.5021073786883,128.743207093248,N
대청점 블루핸즈,현대,고전압배터리 제외 전 작업 수리 가능,055-313-4114,경상남도,김해시 대청로104번길 43-9,35.1871186074452,128.80206708983,08:30 ~ 18:00
덕계점 블루핸즈,현대,고전압배터리 제외 전 작업 수리 가능,055-363-3555,경상남도,양산시 매곡외산로 78,35.369823637373536,129.15994900929215,08:30 ~ 17:30
동읍점 블루핸즈,현대,고전압배터리 제외 전 작업 수리 가능,055-256-3016,경상남도,창원시 의창구 동읍 의창대로 846,35.2769612863399,128.683462602353,N
마산상남점 블루핸즈,현대,고전압배터리 제외 전 작업 수리 가능,055-222-9114,경상남도,창원시 마산합포구 천하장사로 96,35.210981179042534,128.57341818329348,08:30 ~ 18:30
명동점 블루핸즈,현대,고전압배터리 제외 전 작업 수리 가능,055-386-8572,경상남도,양산시 서창로 89,35.4090361313563,129.165701704212,N
봉황점 블루핸즈,현대,고전압배터리 제외 전 작업 수리 가능,055-724-2112,경상남도,김해시 김해대로2272번안길 35,35.223667921195485,128.87896971282254,08:30 ~ 18:00
북부점 블루핸즈,현대,고전압배터리 제외 전 작업 수리 가능,055-383-1810,강원특별자치도,강릉시 가작로 306,37.7706352216083,128.908744706281,09:00 ~ 18:00
삼방점 블루핸즈,현대,고전압배터리 제외 전 작업 수리 가능,055-326-4510,경상남도,김해시 삼안로 147,35.2416012551644,128.914055475812,08:30 ~ 18:00
상남점 블루핸즈,현대,고전압배터리 제외 전 작업 수리 가능,055-354-5856,경상남도,창원시 마산합포구 천하장사로 96,35.210981179042534,128.57341818329348,08:30 ~ 18:30
선지점 블루핸즈,현대,고전압배터리 제외 전 작업 수리 가능,055-338-1271,경상남도,김해시 주촌면 선천로 95,35.235493437203935,128.84310093240703,08:30 ~ 19:00
송정점 블루핸즈,현대,고전압배터리 제외 전 작업 수리 가능,055-943-8875,광주광역시,광산구 송도로 299,35.1399050706571,126.800659655615,08:00 ~ 18:00
신안원지점 블루핸즈,현대,고전압배터리 제외 전 작업 수리 가능,055-974-0971,경상남도,산청군 신안면 원지로 38,35.3017023338449,127.975894171998,08:30 ~ 18:30
안민점 블루핸즈,현대,고전압배터리 제외 전 작업 수리 가능,055-264-8204,경상남도,창원시 성산구 공단로 734,35.188812845330645,128.69363325186333,08:30 ~ 18:30
양산소토점 블루핸즈,현대,고전압배터리 제외 전 작업 수리 가능,055-374-1800,경상남도,양산시 상북면 양산대로 1223,35.3786367812622,129.047251309185,N
옥포점 블루핸즈,현대,고전압배터리 제외 전 작업 수리 가능,055-688-2222,경상남도,거제시 거제대로 3702,34.8878348481908,128.6925961183696,N
율하점 블루핸즈,현대,고전압배터리 제외 전 작업 수리 가능,055-314-8572,경상남도,김해시 율하2로236번길 8,35.174640782115,128.821684215389,08:30 ~ 18:00
장유부곡점 블루핸즈,현대,고전압배터리 제외 전 작업 수리 가능,055-314-7791,경상남도,김해시 부곡로 67,35.209753896198,128.79935653091,N
진교점 블루핸즈,현대,고전압배터리 제외 전 작업 수리 가능,055-883-0988,경상남도,하동군 진교면 경충로 1069,35.02891245216322,127.9044487747386,08:00 ~ 18:00
진례점 블루핸즈,현대,고전압배터리 제외 전 작업 수리 가능,055-346-7921,경상남도,김해시 진례면 고모로 47,35.2324048241008,128.768105094486,08:30 ~ 18:00
진양호점 블루핸즈,현대,고전압배터리 제외 전 작업 수리 가능,055-748-8204,경상남도,진주시 진양호로65번길 5,35.1673995632699,128.046852318619,08:30 ~ 18:30
진영점 블루핸즈,현대,고전압배터리 제외 전 작업 수리 가능,055-345-1800,경상남도,김해시 진영읍 김해대로 758,35.2959761865446,128.766884062529,N
초전점 블루핸즈,현대,고전압배터리 제외 전 작업 수리 가능,055-758-8134,경상남도,진주시 진산로 241,35.20799313365287,128.10183273376822,N
충무공점 블루핸즈,현대,고전압배터리 제외 전 작업 수리 가능,055-758-2500,경상남도,진주시 에나로228번길 16-18,35.1684074380533,128.142375553923,08:30 ~ 18:30
팔용동부점 블루핸즈,현대,고전압배터리 제외 전 작업 수리 가능,055-277-7400,경상남도,창원시 의창구 창원대로363번길 22-25,35.237230267316,128.64108860454,N
평산점 블루핸즈,현대,고전압배터리 제외 전 작업 수리 가능,055-365-8639,경상남도,양산시 웅상대로 941,35.3836388413488,129.154842103784,09:00 ~ 18:00
하남점 블루핸즈,현대,고전압배터리 제외 전 작업 수리 가능,055-391-6566,경상남도,밀양시 하남읍 수산중앙로 125,35.376611215862106,128.71839959962102,08:00 ~ 18:00
하북점 블루핸즈,현대,고전압배터리 제외 전 작업 수리 가능,055-383-8204,울산광역시,울주군 삼남읍 반구대로 604,35.5470208194911,129.115310885256,08:30 ~ 18:00
해운점 블루핸즈,현대,고전압배터리 제외 전 작업 수리 가능,055-224-5533,경상남도,창원시 마산합포구 월영동12길 6,35.1804407964884,128.565218854677,08:30 ~ 18:00
현대자동차서김해서비스,현대,고전압배터리 제외 전 작업 수리 가능,055-724-1980,경상남도,김해시 주촌면 서부로 1474-11,35.2292062520329,128.820030265541,N
(주)구미현대서비스,현대,고전압배터리 제외 전 작업 수리 가능,054-464-3300,경상북도,구미시 비산로 45,36.120355774137344,128.3764332604333,09:00 ~ 18:00
(주)동김천현대서비스,현대,고전압배터리 제외 전 작업 수리 가능,054-434-7757,경상북도,김천시 혁신로 316-17,36.12886839880152,128.18275491292343,N
가흥점 블루핸즈,현대,고전압배터리 제외 전 작업 수리 가능,054-632-8222,경상북도,영주시 신재로 25,36.83071844669698,128.60984165464325,08:30 ~ 18:00
양양점 블루핸즈,현대,고전압배터리 제외 전 작업 수리 가능,033-671-1918,강원특별자치도,양양군 양양읍 동해대로 2865,38.1001074168958,128.629503851856,N
영월점 블루핸즈,현대,고전압배터리 제외 전 작업 수리 가능,033-373-8204,강원특별자치도,영월군 영월읍 영월로 2129,37.1840284025449,128.482663310151,08:30 ~ 17:30
온의점 블루핸즈,현대,고전압배터리 제외 전 작업 수리 가능,033-244-4706,강원특별자치도,춘천시 영서로 2339,37.8679941497472,127.715961228423,08:30 ~ 17:30
원주현대서비스,현대,고전압배터리 제외 전 작업 수리 가능,033-731-4989,강원특별자치도,원주시 동부순환로 338-6,37.34496090413175,127.97745274854164,N
인제점 블루핸즈,현대,고전압배터리 제외 전 작업 수리 가능,033-462-8294,강원특별자치도,양구군 국토정중앙면 정중앙로 512,38.1015284480149,128.026181478027,09:00 ~ 17:30
입암점 블루핸즈,현대,고전압배터리 제외 전 작업 수리 가능,033-642-5056,강원특별자치도,강릉시 율곡로 2698,37.7485439077235,128.908689739677,N
정선점 블루핸즈,현대,고전압배터리 제외 전 작업 수리 가능,033-562-1250,강원특별자치도,정선군 정선읍 어천길 2,37.371945385966,128.670353712955,N
정중앙점 블루핸즈,현대,고전압배터리 제외 전 작업 수리 가능,033-482-8203,강원특별자치도,양구군 국토정중앙면 정중앙로 512,38.1015284480149,128.026181478027,09:00 ~ 17:30
주)현대강남정비센타,현대,고전압배터리 제외 전 작업 수리 가능,033-653-5571,강원특별자치도,강릉시 성덕로 126,37.7644943976805,128.93814025177,08:30 ~ 17:30
주문진점 블루핸즈,현대,고전압배터리 제외 전 작업 수리 가능,033-661-8272,강원특별자치도,강릉시 주문진읍 연주로 285,37.8779561413979,128.82721990343578,N
진부점 블루핸즈,현대,고전압배터리 제외 전 작업 수리 가능,033-335-7785,강원특별자치도,평창군 진부면 청송로 81,37.63693581437697,128.55532400147573,N
철원현대서비스,현대,고전압배터리 제외 전 작업 수리 가능,033-452-6434,강원특별자치도,철원군 갈말읍 호국로 5030,38.1682853835385,127.318191605098,08:30 ~ 17:30
통리점 블루핸즈,현대,고전압배터리 제외 전 작업 수리 가능,033-554-4423,강원특별자치도,태백시 짝바우골길 15,37.1696005655118,129.021288264048,08:30 ~ 18:00
퇴계점 블루핸즈,현대,고전압배터리 제외 전 작업 수리 가능,033-241-5982,강원특별자치도,춘천시 우묵길52번길 26,37.86403228593343,127.72443236231908,N
포남점 블루핸즈,현대,고전압배터리 제외 전 작업 수리 가능,033-653-6622,강원특별자치도,강릉시 가작로 306,37.7706352216083,128.908744706281,09:00 ~ 18:00
학성북부점 블루핸즈,현대,고전압배터리 제외 전 작업 수리 가능,033-744-1377,강원특별자치도,원주시 강변로 801,37.3750176479008,127.947834523538,08:30 ~ 17:30
화전점 블루핸즈,현대,고전압배터리 제외 전 작업 수리 가능,033-552-8205,강원특별자치도,태백시 한성3주택길 1,37.18029905394632,128.973134918656,08:30 ~ 18:00
화천점 블루핸즈,현대,고전압배터리 제외 전 작업 수리 가능,033-442-0945,경상남도,창원시 진해구 충장로52번길 1,35.1525798209671,128.658014726447,09:00 ~ 18:30
횡성점 블루핸즈,현대,고전압배터리 제외 전 작업 수리 가능,033-343-8204,강원특별자치도,횡성군 둔내면 둔방남길 13,37.50303196499526,128.20586620120318,09:00 ~ 18:00
후평점 블루핸즈,현대,고전압배터리 제외 전 작업 수리 가능,033-251-8838,강원특별자치도,춘천시 춘천로 376,37.8869021061764,127.750792857013,08:30 ~ 18:00
(주)곤지암현대써비스,현대,고전압배터리 제외 전 작업 수리 가능,031-769-8484,경기도,광주시 곤지암읍 대석동길 113,37.3512099301818,127.348696831967,08:30 ~ 18:00
(주)이천써비스 블루핸즈,현대,고전압배터리 제외 전 작업 수리 가능,031-637-0063,경기도,이천시 대월면 경충대로1937번길 43,37.2399480414308,127.501039682222,08:30 ~ 18:00
(주)포승자동차 블루핸즈,현대,고전압배터리 제외 전 작업 수리 가능,031-681-9777,경기도,평택시 포승읍 포승서로 80,36.997502197435615,126.8556203293651,08:30 ~ 18:00
(주)현대동일공업사,현대,고전압배터리 제외 전 작업 수리 가능,031-409-7788,경기도,안산시 상록구 오목로 165,37.291588734326,126.875931874393,N
가능서부점 블루핸즈,현대,고전압배터리 제외 전 작업 수리 가능,031-877-5589,경기도,의정부시 서부로 526,37.74369426998879,127.025738259475,N
가산점 블루핸즈,현대,고전압배터리 제외 전 작업 수리 가능,031-544-6230,서울,금천구 시흥대로153길 26,37.477416989552566,126.89689106263558,08:30 ~ 18:00
광명하안현대서비스,현대,고전압배터리 제외 전 작업 수리 가능,02-898-5959,경기도,광명시 구름산로 35,37.45811045306982,126.87741147013716,09:00 ~ 18:00
교하당하점 블루핸즈,현대,고전압배터리 제외 전 작업 수리 가능,031-943-8543,경기도,파주시 천정구로 81-1,37.74277979473585,126.75134114777866,08:30 ~ 18:00
김량장점 블루핸즈,현대,고전압배터리 제외 전 작업 수리 가능,031-336-4947,경기도,용인시 처인구 중부대로 1434,37.2326082976222,127.203565833343,09:00 ~ 18:00
능평점 블루핸즈,현대,고전압배터리 제외 전 작업 수리 가능,031-766-9005,경기도,광주시 오포로 260,37.34855364494752,127.19061040602313,N
도농점 블루핸즈,현대,고전압배터리 제외 전 작업 수리 가능,031-558-8204,경기도,남양주시 가운로 9,37.60539527341567,127.1588339189734,N
백암점 블루핸즈,현대,고전압배터리 제외 전 작업 수리 가능,031-322-5325,경기도,용인시 처인구 백암면 죽양대로 1203,37.169483846842105,127.37502016027292,08:30 ~ 17:30
별내현대서비스,현대,고전압배터리 제외 전 작업 수리 가능,1588-0501,경기도,남양주시 송산로 356,37.67335635986537,127.134286046425,08:30 ~ 18:00
부발신하점 블루핸즈,현대,고전압배터리 제외 전 작업 수리 가능,031-638-8885,경기도,이천시 부발읍 경충대로 2170,37.2576205195382,127.485131704704,08:30 ~ 18:00
분당현대서비스(주),현대,고전압배터리 제외 전 작업 수리 가능,031-707-5033,경기도,성남시 분당구 돌마로 569,37.383871232232,127.138009177018,08:00 ~ 18:00
상동중부점 블루핸즈,현대,고전압배터리 제외 전 작업 수리 가능,032-321-8204,경기도,부천시 원미구 상이로9번길 7-4,37.4894603076115,126.743743490434,09:00 ~ 18:00
송우중부점 블루핸즈,현대,고전압배터리 제외 전 작업 수리 가능,031-542-8235,경기도,포천시 소흘읍 송우로 168,37.834940980014,127.132815353228,09:00 ~ 18:00
신장점 블루핸즈,현대,고전압배터리 제외 전 작업 수리 가능,031-663-0955,경기도,평택시 신장로 176,37.0901444484703,127.053710367023,08:30 ~ 18:00
약대점 블루핸즈,현대,고전압배터리 제외 전 작업 수리 가능,032-675-2254,경기도,부천시 원미구 중동로 365,37.51256864814563,126.76969977683903,08:30 ~ 18:00
양평동부점 블루핸즈,현대,고전압배터리 제외 전 작업 수리 가능,031-771-8246,경기도,양평군 양평읍 백안길 9,37.49280623067416,127.51563286510098,08:30 ~ 13:00
양평자동차공업사 블루핸즈,현대,고전압배터리 제외 전 작업 수리 가능,031-772-2301,경기도,양평군 양평읍 경강로 1744,37.50171236913117,127.47462733543792,00:00 ~ 24:00
양평점 블루핸즈,현대,고전압배터리 제외 전 작업 수리 가능,031-774-5511,경기도,양평군 양평읍 양근로 15,37.5012133625669,127.476828309253,08:30 ~ 18:00
역곡점 블루핸즈,현대,고전압배터리 제외 전 작업 수리 가능,032-343-8204,경기도,부천시 소사구 경인로 479,37.48333508642115,126.80883968365944,09:00 ~ 18:00
영통중부점 블루핸즈,현대,고전압배터리 제외 전 작업 수리 가능,031-205-1472,경기도,수원시 영통구 영통로345번길 11,37.2563913138423,127.064077073948,09:00 ~ 18:00
오산점 블루핸즈,현대,고전압배터리 제외 전 작업 수리 가능,031-826-7474,경기도,양주시 백석읍 권율로 1385,37.80717145829554,126.97756465690314,08:30 ~ 19:30
오정점 블루핸즈,현대,고전압배터리 제외 전 작업 수리 가능,032-676-8272,경기도,부천시 오정구 오정로 230,37.5282784730339,126.78497635822,N
오토서비스(주) 블루핸즈,현대,고전압배터리 제외 전 작업 수리 가능,031-631-2881,충청남도,아산시 곡교천로125번길 35,36.79532636998329,126.9897601878122,08:30 ~ 18:00
순천서비스센터 블루핸즈,현대,모든 수리,061-723-4111,전라남도,광양시 광양읍 해광로 888,34.96351310878845,127.58214229108832,N
포항서비스센터 블루핸즈,현대,모든 수리,054-286-2111,경상북도,포항시 북구 청하면 동해대로 2353,36.17957825322539,129.34021834384902,08:30 ~ 18:00
창원서비스센터 블루핸즈,현대,모든 수리,055-210-7800,경상남도,창원시 마산회원구 무역로 161,35.2118387562769,128.603597002334,N
제주서비스센터 블루핸즈,현대,모든 수리,064-780-5555,제주특별자치도,제주시 월광로 43,33.4854812784823,126.465509399744,08:30 ~ 18:30
(주)현대서원주서비스,현대,모든 수리,033-733-9800,강원특별자치도,원주시 봉화로 145,37.3577680809487,127.927955270262,09:00 ~ 18:00
동횡성 현대서비스,현대,모든 수리,033-344-2112,강원특별자치도,횡성군 둔내면 둔방남길 13,37.50303196499526,128.20586620120318,09:00 ~ 18:00
(주)진흥공업사 블루핸즈,현대,모든 수리,031-952-2373,경기도,파주시 문산읍 우계로 430-13,37.8582182864383,126.796694002755,08:30 ~ 18:00
구성자동차정비공장 블루핸즈,현대,모든 수리,031-281-0008,경기도,용인시 기흥구 동백죽전대로527번길 98-25,37.28279341038719,127.14271720906088,09:00 ~ 18:00
남부자동차서비스 블루핸즈,현대,모든 수리,031-205-5005,충청남도,서산시 남부순환로 20-8,36.7536444711319,126.494337786295,09:00 ~ 18:00
하남현대종합서비스(주),현대,모든 수리,02-6956-2470,경기도,하남시 초광산단동로 8,37.5283761376227,127.173137827882,08:30 ~ 18:00
거제현대서비스,현대,모든 수리,055-637-9200,경상남도,거제시 연초면 방곡길 3,34.91045619413146,128.66206624304144,08:30 ~ 18:00
고현로점 블루핸즈,현대,모든 수리,055-637-8801,경상남도,거제시 고현로14길 61,34.8834044816094,128.629533086648,08:30 ~ 18:30
산청1급정비공업사 블루핸즈,현대,모든 수리,055-973-7676,경상남도,산청군 산청읍 친환경로2720번길 91,35.41433697369681,127.88672377908284,09:00 ~ 18:00
신월점 블루핸즈,현대,모든 수리,055-281-8572,경상남도,창원시 성산구 신사로35번길 26,35.227369069567,128.69123049426898,08:30 ~ 18:30
연초점 블루핸즈,현대,모든 수리,055-633-8204,경상남도,거제시 연초면 거제대로 4453,34.9002119290316,128.644747169539,N
진주현대서비스,현대,모든 수리,055-756-2345,경상남도,진주시 정촌면 연꽃로 60,35.1176101850489,128.098293212474,08:30 ~ 18:00
북부현대서비스,현대,모든 수리,062-972-8204,광주광역시,광산구 도천남길 213,35.2139763841889,126.819454027552,08:30 ~ 18:00
현대서부서비스(주),현대,모든 수리,062-675-3111,광주광역시,서구 풍서좌로 247,35.126691544326206,126.84260638578586,N
영등포점 블루핸즈,현대,모든 수리,02-2677-8204,서울,영등포구 국회대로 663-1,37.5256523333652,126.907804943801,08:30 ~ 18:00
제이에스모터스 블루핸즈,현대,모든 수리,02-851-0003,서울,구로구 가마산로 77,37.4856068258919,126.875073540063,08:30 ~ 18:00
광영점 블루핸즈,현대,모든 수리,061-794-7901,전라남도,광양시 눈소5길 3,34.93753708285617,127.70781970195966,08:30 ~ 17:30
나주현대서비스(주),현대,모든 수리,061-334-9999,전라남도,나주시 금천면 영산로 5851,35.03517912782882,126.76796062433544,N
(유)현대자동차익산서비스,현대,모든 수리,063-837-7111,전북특별자치도,익산시 서동로 491,35.9442687784836,127.001152647245,09:00 ~ 18:00
수름재점 블루핸즈,현대,모든 수리,043-298-8205,충청북도,청주시 청원구 공항로 238-2,36.67828594145424,127.48465198031586,08:30 ~ 19:00
음성남부점 블루핸즈,현대,모든 수리,043-873-8208,충청북도,음성군 음성읍 음성로 39,36.9263418357119,127.685949864249,N
(자)신흥공업사 블루핸즈,현대,고전압배터리 제외 전 작업 수리 가능,033-742-3533,강원특별자치도,원주시 강변로 577,37.35458691638159,127.9516238318792,08:30 ~ 18:00
고성현대서비스,현대,고전압배터리 제외 전 작업 수리 가능,033-681-0001,강원특별자치도,고성군 죽왕면 향목길 14,38.3808024492889,128.490057911922,08:30 ~ 18:00
교동점 블루핸즈,현대,고전압배터리 제외 전 작업 수리 가능,033-632-5232,강원특별자치도,속초시 동해대로 4334,38.2022245824368,128.569188117134,N
교동중부점 블루핸즈,현대,고전압배터리 제외 전 작업 수리 가능,033-645-9994,강원특별자치도,강릉시 화부산로 62,37.76231190139411,128.88572736198614,N
남양점 블루핸즈,현대,고전압배터리 제외 전 작업 수리 가능,033-573-9009,경기도,화성시 만세구 남양읍 수작이길 115,37.2131326652626,126.814859073473,08:30 ~ 18:00
남원주 현대서비스,현대,고전압배터리 제외 전 작업 수리 가능,033-734-5600,강원특별자치도,원주시 만대로 200-22,37.3308839881564,127.924054486946,09:00 ~ 17:30
내곡점 블루핸즈,현대,고전압배터리 제외 전 작업 수리 가능,033-646-8598,강원특별자치도,강릉시 범일로 598-6,37.7406905806037,128.880777097061,N
단구점 블루핸즈,현대,고전압배터리 제외 전 작업 수리 가능,033-764-8204,강원특별자치도,원주시 서원대로 523,37.3243924465239,127.9607955253,N
동송점 블루핸즈,현대,고전압배터리 제외 전 작업 수리 가능,033-455-4297,강원특별자치도,철원군 동송읍 금학로 6,38.1910949316647,127.229012088255,N
문막점 블루핸즈,현대,고전압배터리 제외 전 작업 수리 가능,033-734-8204,강원특별자치도,원주시 만대로 200-22,37.3308839881564,127.924054486946,09:00 ~ 17:30
부곡점 블루핸즈,현대,고전압배터리 제외 전 작업 수리 가능,033-533-8561,부산광역시,금정구 중앙대로 1594,35.2266821110643,129.089836883427,N
사북점 블루핸즈,현대,고전압배터리 제외 전 작업 수리 가능,033-592-0909,강원특별자치도,정선군 사북읍 지장천로 457,37.2272599776615,128.798931718675,N
삼척봉황현대서비스(주),현대,고전압배터리 제외 전 작업 수리 가능,033-574-8366,강원특별자치도,삼척시 동해대로 4331,37.4579027612397,129.160423438395,N
서울공업사 블루핸즈,현대,고전압배터리 제외 전 작업 수리 가능,033-552-6000,서울,마포구 모래내로3길 19,37.5656464910218,126.9040611958,08:30 ~ 18:00
석사점 블루핸즈,현대,고전압배터리 제외 전 작업 수리 가능,033-261-8210,강원특별자치도,춘천시 남춘로36번길 87,37.8587430542143,127.738189295474,09:00 ~ 17:30
소양점 블루핸즈,현대,고전압배터리 제외 전 작업 수리 가능,033-254-8504,강원특별자치도,춘천시 소양로 161,37.8876486587424,127.724240810505,N
속초현대서비스,현대,고전압배터리 제외 전 작업 수리 가능,033-636-5455,강원특별자치도,속초시 소평로 70,38.18861640732585,128.56733010840756,08:30 ~ 17:30
벌교자동차정비공업사 블루핸즈,현대,고전압배터리 제외 전 작업 수리 가능,061-858-3900,전라남도,보성군 벌교읍 분토길 4,34.833535593924275,127.34737627630663,N
봉계점 블루핸즈,현대,고전압배터리 제외 전 작업 수리 가능,061-682-1600,전라남도,여수시 여수산단로 32,34.786954091111866,127.66387422157464,N
연산점 블루핸즈,현대,고전압배터리 제외 전 작업 수리 가능,061-274-8205,부산광역시,연제구 과정로 198,35.1881830178127,129.105759273368,08:30 ~ 17:30
영광점 블루핸즈,현대,고전압배터리 제외 전 작업 수리 가능,061-353-8236,전라남도,영광군 영광읍 천년로 1408,35.270857768288934,126.49846858681468,N
영암한라점 블루핸즈,현대,고전압배터리 제외 전 작업 수리 가능,061-461-2222,전라남도,영암군 삼호읍 대불로 370,34.76116312580191,126.39398970163695,N
우수영점 블루핸즈,현대,고전압배터리 제외 전 작업 수리 가능,061-533-5254,전라남도,해남군 문내면 명량로 191,34.5954759987076,126.31425783294875,08:00 ~ 18:00
일로점 블루핸즈,현대,고전압배터리 제외 전 작업 수리 가능,061-285-1522,전라남도,무안군 일로읍 삼일로 558,34.85308678708865,126.49686086051057,N
장흥점 블루핸즈,현대,고전압배터리 제외 전 작업 수리 가능,061-864-8204,전라남도,강진군 강진읍 금릉2길 2,34.634128268644865,126.7673534212884,N
중앙점 블루핸즈,현대,고전압배터리 제외 전 작업 수리 가능,061-532-8111,서울,동작구 상도로 226,37.5050671865072,126.943790661953,08:30 ~ 18:00
함평점 블루핸즈,현대,고전압배터리 제외 전 작업 수리 가능,061-323-8205,전라남도,함평군 대동면 학동로 404,35.061464394287,126.53781067279496,08:30 ~ 18:00
해남점 블루핸즈,현대,고전압배터리 제외 전 작업 수리 가능,061-536-8203,전라남도,해남군 해남읍 중앙1로 489,34.5791528357497,126.582990852663,00:00 ~ 24:00
홍농점 블루핸즈,현대,고전압배터리 제외 전 작업 수리 가능,061-356-2825,전라남도,영광군 홍농읍 홍농로 437,35.393803415028955,126.44505133822068,N
화순점 블루핸즈,현대,고전압배터리 제외 전 작업 수리 가능,061-375-8204,광주광역시,남구 제석로 117-2,35.125073777434146,126.90748121600458,08:30 ~ 17:30
(유)봉동현대서비스,현대,고전압배터리 제외 전 작업 수리 가능,063-262-3600,전북특별자치도,완주군 봉동읍 봉동로 461,35.9552357826246,127.142016854029,09:00 ~ 18:00
(유)현대자동차에이치디서비스,현대,고전압배터리 제외 전 작업 수리 가능,063-212-4040,전북특별자치도,전주시 덕진구 추천로 91-5,35.8465389765309,127.104197494612,08:20 ~ 18:20
갈공점 블루핸즈,현대,고전압배터리 제외 전 작업 수리 가능,063-545-8204,전북특별자치도,김제시 벽성로 305,35.8012025888419,126.870445071631,08:00 ~ 18:00
고창점 블루핸즈,현대,고전압배터리 제외 전 작업 수리 가능,063-564-8796,전북특별자치도,고창군 고창읍 소반3길 17-2,35.4398216414552,126.694510247731,09:00 ~ 18:00
금암점 블루핸즈,현대,고전압배터리 제외 전 작업 수리 가능,063-252-2746,전북특별자치도,전주시 덕진구 백제대로 605,35.8418860184831,127.135584962472,N
남원현대서비스,현대,고전압배터리 제외 전 작업 수리 가능,063-626-9933,전북특별자치도,남원시 춘향로 162-8,35.42662609336179,127.38757299491216,N
농소점 블루핸즈,현대,고전압배터리 제외 전 작업 수리 가능,063-533-8275,전북특별자치도,정읍시 명덕1길 83,35.58254543441631,126.85202541107776,08:30 ~ 18:30
대야점 블루핸즈,현대,고전압배터리 제외 전 작업 수리 가능,063-451-1122,전북특별자치도,군산시 개정면 번영로 830,35.9486864830522,126.8036445994,N
덕진점 블루핸즈,현대,고전압배터리 제외 전 작업 수리 가능,063-252-8205,전북특별자치도,전주시 덕진구 온고을로 438-1,35.851357228807785,127.08190731244834,08:30 ~ 17:30
덕진중부점 블루핸즈,현대,고전압배터리 제외 전 작업 수리 가능,063-273-6611,전북특별자치도,전주시 완산구 서원로 341,35.8131691791859,127.131552766389,08:30 ~ 17:30
도통점 블루핸즈,현대,고전압배터리 제외 전 작업 수리 가능,063-626-1929,전북특별자치도,남원시 충정로 183,35.420681537514945,127.39077181259064,08:30 ~ 17:30
동산점 블루핸즈,현대,고전압배터리 제외 전 작업 수리 가능,063-854-8204,전북특별자치도,익산시 평동로 752,35.9278238475778,126.96124029148432,08:30 ~ 19:00
모현점 블루핸즈,현대,고전압배터리 제외 전 작업 수리 가능,063-842-4935,경기도,용인시 처인구 모현읍 백옥대로 2529-1,37.3491082959256,127.249006959707,08:30 ~ 18:00
무주점 블루핸즈,현대,고전압배터리 제외 전 작업 수리 가능,063-324-1951,전북특별자치도,무주군 무주읍 한풍루로 295,36.0034866998944,127.658351574469,08:40 ~ 18:00
문화점 블루핸즈,현대,고전압배터리 제외 전 작업 수리 가능,063-461-4666,대전광역시,중구 산성로 138,36.3118794959671,127.402019613569,N
미장점 블루핸즈,현대,고전압배터리 제외 전 작업 수리 가능,063-451-7104,전북특별자치도,군산시 미장8길 2,35.95995316042959,126.73123962549244,08:30 ~ 18:00
부송점 블루핸즈,현대,고전압배터리 제외 전 작업 수리 가능,063-831-8204,전북특별자치도,익산시 무왕로 1290,35.96053077555547,126.9998170905986,N
부안중부점 블루핸즈,현대,고전압배터리 제외 전 작업 수리 가능,063-584-7873,전북특별자치도,부안군 부안읍 순환남로 571,35.7110730627138,126.755655536795,N
산북점 블루핸즈,현대,고전압배터리 제외 전 작업 수리 가능,063-466-2244,전북특별자치도,군산시 칠성안3길 4,35.959538927814094,126.67358562525442,08:30 ~ 18:00
서서학점 블루핸즈,현대,고전압배터리 제외 전 작업 수리 가능,063-281-0111,전북특별자치도,전주시 완산구 안행로 50,35.8014325050833,127.133586754501,08:30 ~ 18:30
서신중부점 블루핸즈,현대,고전압배터리 제외 전 작업 수리 가능,063-278-8272,전북특별자치도,전주시 완산구 서원로 341,35.8131691791859,127.131552766389,08:30 ~ 17:30
송천동부점 블루핸즈,현대,고전압배터리 제외 전 작업 수리 가능,063-254-8575,전북특별자치도,전주시 덕진구 송천중앙로 248,35.86877074595205,127.12184755407776,08:30 ~ 18:00
송천북부점 블루핸즈,현대,고전압배터리 제외 전 작업 수리 가능,063-275-9994,전북특별자치도,전주시 덕진구 동부대로 1088,35.870032875725265,127.12840900782795,00:00 ~ 24:00
송천점 블루핸즈,현대,고전압배터리 제외 전 작업 수리 가능,063-271-7272,전북특별자치도,전주시 덕진구 송천3길 44-12,35.86089830063551,127.11638942316957,08:30 ~ 18:00
송학점 블루핸즈,현대,고전압배터리 제외 전 작업 수리 가능,063-853-6817,전북특별자치도,익산시 고현로 17,35.93887909972359,126.94064602529389,08:00 ~ 18:00
수성점 블루핸즈,현대,고전압배터리 제외 전 작업 수리 가능,063-532-4114,전북특별자치도,정읍시 남북로 61,35.57031790346626,126.85231706420366,08:30 ~ 17:30
순창공업사 블루핸즈,현대,고전압배터리 제외 전 작업 수리 가능,063-653-1234,전북특별자치도,순창군 순창읍 강천로 19-6,35.370962357056875,127.11412029526588,09:00 ~ 18:00
순창점 블루핸즈,현대,고전압배터리 제외 전 작업 수리 가능,063-653-8504,전북특별자치도,순창군 순창읍 강천로 19-6,35.370962357056875,127.11412029526588,09:00 ~ 18:00
시기점 블루핸즈,현대,고전압배터리 제외 전 작업 수리 가능,063-533-4027,전북특별자치도,정읍시 정읍남로 1441-41,35.5582332988591,126.85909715732,N
신태인점 블루핸즈,현대,고전압배터리 제외 전 작업 수리 가능,063-571-5582,전북특별자치도,정읍시 신태인읍 신태인중앙로 61,35.68969764157541,126.8917799763323,08:30 ~ 18:00
영등동부점 블루핸즈,현대,고전압배터리 제외 전 작업 수리 가능,063-832-8572,전북특별자치도,익산시 고봉로 182,35.948338903717726,126.96751917379072,08:30 ~ 18:30
영등점 블루핸즈,현대,고전압배터리 제외 전 작업 수리 가능,063-856-0064,전북특별자치도,익산시 고봉로 182,35.948338903717726,126.96751917379072,08:30 ~ 18:30
동부서비스센터 블루핸즈,현대,모든 수리,02-3408-8000,서울,강동구 명일로 195,37.53631089692639,127.14533172037974,08:30 ~ 18:00
북부서비스센터 블루핸즈,현대,모든 수리,02-3499-8300,제주특별자치도,제주시 월광로 43,33.4854812784823,126.465509399744,08:30 ~ 18:30
고양서비스센터 블루핸즈,현대,모든 수리,1899-6611,경기도,고양시 덕양구 혜음로 240,37.72110984307469,126.89808205031034,08:30 ~ 17:30
수원서비스센터 블루핸즈,현대,모든 수리,031-206-5151,경기도,용인시 수지구 풍덕천로190번길 15-4,37.3248394780086,127.102581928402,08:30 ~ 18:30
강릉서비스센터 블루핸즈,현대,모든 수리,033-653-9120,강원특별자치도,강릉시 성덕로 126,37.7644943976805,128.93814025177,08:30 ~ 17:30
청주서비스센터 블루핸즈,현대,모든 수리,043-230-0100,충청북도,청주시 흥덕구 가경로101번길 27,36.6237705816781,127.437601247734,08:30 ~ 18:30
세종금남점 블루핸즈,현대,고전압배터리 제외 전 작업 수리 가능,044-868-5185,세종특별자치시,금남면 용포로 112,36.4686992426816,127.281766973742,08:30 ~ 18:00
세종부강점 블루핸즈,현대,고전압배터리 제외 전 작업 수리 가능,044-866-8203,세종특별자치시,부강면 연청로 1040,36.5289307057401,127.38770869243,08:30 ~ 18:00
세종서부점 블루핸즈,현대,고전압배터리 제외 전 작업 수리 가능,044-867-6671,세종특별자치시,장군면 장척로 536,36.497985306257696,127.21697783122892,08:30 ~ 18:30
현대세종서비스,현대,고전압배터리 제외 전 작업 수리 가능,044-998-7988,세종특별자치시,연서면 당산로 487,36.5737907647619,127.289624860951,08:30 ~ 18:00
교동점 블루핸즈,현대,고전압배터리 제외 전 작업 수리 가능,052-264-8282,강원특별자치도,속초시 동해대로 4334,38.2022245824368,128.569188117134,N
구영점 블루핸즈,현대,고전압배터리 제외 전 작업 수리 가능,052-248-5757,울산광역시,울주군 범서읍 대리3길 10-16,35.5665554047796,129.248935784068,08:30 ~ 18:00
달동남부점 블루핸즈 블루핸즈,현대,고전압배터리 제외 전 작업 수리 가능,052-999-9299,울산광역시,남구 삼산중로 9,35.534394864681964,129.3364985079594,08:30 ~ 18:00
달동중부점 블루핸즈,현대,고전압배터리 제외 전 작업 수리 가능,052-265-8203,울산광역시,남구 도산로101번길 4-8,35.5315434034642,129.326041936626,N
동울산정비 블루핸즈,현대,고전압배터리 제외 전 작업 수리 가능,052-201-0029,울산광역시,동구 방어진순환도로 448,35.48725856605571,129.4165642631672,09:00 ~ 17:30
명촌점 블루핸즈,현대,고전압배터리 제외 전 작업 수리 가능,052-289-9945,울산광역시,북구 명촌8길 35,35.5537106910043,129.357326255768,N
무거점 블루핸즈,현대,고전압배터리 제외 전 작업 수리 가능,052-222-4454,울산광역시,남구 남부순환도로 1,35.5493575339563,129.26414262668206,08:30 ~ 18:30
반구중부점 블루핸즈,현대,고전압배터리 제외 전 작업 수리 가능,052-292-5600,울산광역시,중구 구교로 133,35.55705867521596,129.33838144411402,08:30 ~ 18:00
북구서비스현대자동차,현대,고전압배터리 제외 전 작업 수리 가능,052-283-0012,울산광역시,북구 진장2길 19,35.5698420685879,129.359404675214,09:00 ~ 17:30
삼산남부점 블루핸즈,현대,고전압배터리 제외 전 작업 수리 가능,052-276-2276,울산광역시,남구 정동로6번길 19,35.5349343796945,129.345788275152,N
상안점블루핸즈 블루핸즈,현대,고전압배터리 제외 전 작업 수리 가능,052-294-1844,울산광역시,북구 신답1길 9-5,35.6284390146303,129.344266932267,N
서생점 블루핸즈,현대,고전압배터리 제외 전 작업 수리 가능,052-238-0091,울산광역시,울주군 서생면 해맞이로 1622,35.386044354668,129.340107387899,N
선암점 블루핸즈,현대,고전압배터리 제외 전 작업 수리 가능,052-227-2555,울산광역시,남구 두왕로 80,35.510367516340224,129.30911965956054,08:30 ~ 18:00
성안점 블루핸즈,현대,고전압배터리 제외 전 작업 수리 가능,052-245-4515,울산광역시,중구 명정3길 32,35.553642139808964,129.29060604123944,08:30 ~ 18:00
신정남부점 블루핸즈,현대,고전압배터리 제외 전 작업 수리 가능,052-257-2217,울산광역시,남구 돋질로 111,35.5397208423725,129.317652757429,08:30 ~ 18:00
신정중부점 블루핸즈,현대,고전압배터리 제외 전 작업 수리 가능,052-257-8272,서울,양천구 신정중앙로 40,37.5271540819732,126.85618389389,09:00 ~ 18:00
언양점 블루핸즈,현대,고전압배터리 제외 전 작업 수리 가능,052-263-2308,울산광역시,울주군 언양읍 남천로 170,35.5647460406558,129.112503646888,N
염포점 블루핸즈,현대,고전압배터리 제외 전 작업 수리 가능,052-288-8272,울산광역시,북구 염포로 753,35.527642648697224,129.39783126665054,08:30 ~ 18:00
옥동점 블루핸즈,현대,고전압배터리 제외 전 작업 수리 가능,052-266-6272,울산광역시,남구 팔등로 3,35.544035992854226,129.30708725570557,08:30 ~ 18:00
온산점 블루핸즈,현대,고전압배터리 제외 전 작업 수리 가능,052-238-8448,울산광역시,울주군 온산읍 덕신로 248,35.43322099615581,129.30847733011103,08:30 ~ 19:00
온양현대서비스,현대,고전압배터리 제외 전 작업 수리 가능,052-234-0032,충청남도,아산시 곡교천로125번길 35,36.79532636998329,126.9897601878122,08:30 ~ 18:00
전하점 블루핸즈,현대,고전압배터리 제외 전 작업 수리 가능,052-236-2211,울산광역시,동구 번덕1길 10,35.503397776848104,129.42877874557638,08:30 ~ 18:00
정일공업사 블루핸즈,현대,고전압배터리 제외 전 작업 수리 가능,052-289-4001,울산광역시,북구 염포로 275,35.56091419903006,129.36933735064173,08:00 ~ 18:00
천상점 블루핸즈,현대,고전압배터리 제외 전 작업 수리 가능,052-248-8204,울산광역시,울주군 범서읍 천상1길 19-17,35.5634185605144,129.231935994604,08:30 ~ 17:30
태화점 블루핸즈,현대,고전압배터리 제외 전 작업 수리 가능,052-247-8998,경상북도,안동시 경동로 427,36.5690687616057,128.70678787110054,08:30 ~ 18:00
현대동구서비스,현대,고전압배터리 제외 전 작업 수리 가능,052-201-4100,울산광역시,동구 방어진순환도로 603,35.4956549255518,129.427042695665,09:00 ~ 18:00
현대종합정비,현대,고전압배터리 제외 전 작업 수리 가능,052-273-5600,경상남도,양산시 중앙우회로 147,35.3481468989589,129.038236700237,N
호계남부점 블루핸즈,현대,고전압배터리 제외 전 작업 수리 가능,052-295-8572,울산광역시,북구 동대로 50,35.62802662862895,129.3575426169585,N
(주)아진모터스 블루핸즈,현대,고전압배터리 제외 전 작업 수리 가능,032-546-2100,인천광역시,계양구 아나지로 434,37.525292778505246,126.74025882504516,08:03 ~ 18:00
가좌점 블루핸즈,현대,고전압배터리 제외 전 작업 수리 가능,032-573-9944,인천광역시,서구 건지로 395-1,37.495879099609,126.685565214405,N
구월중부점 블루핸즈,현대,고전압배터리 제외 전 작업 수리 가능,032-463-8203,인천광역시,남동구 복개서로97번길 1,37.4552207124653,126.722426895524,N
마전점 블루핸즈,현대,고전압배터리 제외 전 작업 수리 가능,032-568-1033,인천광역시,서구 완정로64번길 56,37.59564988465513,126.67294380306208,N
만수중부점 블루핸즈,현대,고전압배터리 제외 전 작업 수리 가능,032-462-3344,인천광역시,남동구 백범로226번길 3,37.4606165318679,126.724210909393,N
부평점 블루핸즈,현대,고전압배터리 제외 전 작업 수리 가능,032-511-7784,인천광역시,부평구 장제로 183,37.5020267449048,126.730441599685,N
석남점 블루핸즈,현대,고전압배터리 제외 전 작업 수리 가능,032-583-8204,인천광역시,서구 길주로 82,37.5061179667787,126.670964251493,N
송도현대모터스,현대,고전압배터리 제외 전 작업 수리 가능,032-831-5599,인천광역시,미추홀구 독배로 183,37.4373091287712,126.646963968726,08:30 ~ 18:00
신포점 블루핸즈,현대,고전압배터리 제외 전 작업 수리 가능,032-888-7117,인천광역시,중구 인중로182번길 6-3,37.4692406316134,126.624665405333,08:30 ~ 18:00
옥련점 블루핸즈,현대,고전압배터리 제외 전 작업 수리 가능,032-833-6396,인천광역시,미추홀구 독배로 183,37.4373091287712,126.646963968726,08:30 ~ 18:00
용종점 블루핸즈,현대,고전압배터리 제외 전 작업 수리 가능,032-554-8572,인천광역시,계양구 살라리로1번길 2,37.5372591791541,126.744912865577,N
작전남부점 블루핸즈,현대,고전압배터리 제외 전 작업 수리 가능,032-544-7784,인천광역시,계양구 계양대로 67-13,37.5296814448998,126.721626261253,08:30 ~ 18:00
주안점(주) 블루핸즈,현대,고전압배터리 제외 전 작업 수리 가능,032-865-3888,인천광역시,미추홀구 경원대로 922,37.4649560789878,126.690835659166,09:00 ~ 18:00
학익점 블루핸즈,현대,고전압배터리 제외 전 작업 수리 가능,032-876-7204,인천광역시,미추홀구 한나루로 373,37.44159063720813,126.66266570032673,00:00 ~ 24:00
(유)삽진공업사 블루핸즈,현대,고전압배터리 제외 전 작업 수리 가능,061-278-7103,전라남도,목포시 대양로13번길 12,34.823161048001104,126.38337811230784,N
(주)광양정비센터 블루핸즈,현대,고전압배터리 제외 전 작업 수리 가능,061-761-2222,전라남도,광양시 광양읍 해광로 888,34.96351310878845,127.58214229108832,N
강진점 블루핸즈,현대,고전압배터리 제외 전 작업 수리 가능,061-433-8204,전라남도,강진군 강진읍 금릉2길 2,34.634128268644865,126.7673534212884,N
담양점 블루핸즈,현대,고전압배터리 제외 전 작업 수리 가능,061-383-6785,전라남도,담양군 담양읍 지침6길 30-1,35.315737662490896,126.98632116748368,N
대호점 블루핸즈,현대,고전압배터리 제외 전 작업 수리 가능,061-333-8288,전라남도,나주시 건재로 67,35.040849472953994,126.71498387630884,N
목포산정점 블루핸즈,현대,고전압배터리 제외 전 작업 수리 가능,061-242-8207,전라남도,목포시 용당로 8,34.78829463364468,126.40243598956614,08:30 ~ 18:00
무안점 블루핸즈,현대,고전압배터리 제외 전 작업 수리 가능,061-454-1177,전라남도,무안군 무안읍 공항로 27,34.992805424372555,126.4788622667079,N
시흥중부점 블루핸즈,현대,고전압배터리 제외 전 작업 수리 가능,02-804-8272,경기도,시흥시 평안상가5길 15-1,37.33621203846207,126.74724182558546,08:30 ~ 17:30
신길남부점 블루핸즈,현대,고전압배터리 제외 전 작업 수리 가능,02-842-2715,서울,영등포구 신길로 65-1,37.4985286636182,126.90800227753694,08:30 ~ 18:00
신림점 블루핸즈,현대,고전압배터리 제외 전 작업 수리 가능,02-866-8204,서울,관악구 남부순환로 1686,37.4838471704366,126.937601541811,N
신목로점 블루핸즈,현대,고전압배터리 제외 전 작업 수리 가능,02-2654-8000,서울,양천구 신목로 26,37.5182478836353,126.874544052714,08:30 ~ 18:00
신사점(주) 블루핸즈,현대,고전압배터리 제외 전 작업 수리 가능,02-515-8161,서울,강남구 압구정로4길 14,37.5217798563506,127.020126752647,08:30 ~ 18:00
양재남부점 블루핸즈,현대,고전압배터리 제외 전 작업 수리 가능,02-576-0097,서울,서초구 마방로 36,37.47557234112395,127.0418962374026,N
양재동부점 블루핸즈,현대,고전압배터리 제외 전 작업 수리 가능,02-573-5872,서울,서초구 바우뫼로 187,37.4792905297938,127.040099554087,N
양재북부점 블루핸즈,현대,고전압배터리 제외 전 작업 수리 가능,02-529-8214,서울,서초구 강남대로18길 16-12,37.47135458950306,127.03964199804204,08:30 ~ 18:00
양재점 블루핸즈,현대,고전압배터리 제외 전 작업 수리 가능,02-529-8272,서울,서초구 매헌로 50,37.4652941961806,127.034517077052,N
양재중부점 블루핸즈,현대,고전압배터리 제외 전 작업 수리 가능,02-578-1331,서울,서초구 강남대로4길 5,37.4668557524987,127.04249387406,09:00 ~ 18:00
양재현대서비스(주),현대,고전압배터리 제외 전 작업 수리 가능,02-572-4665,서울,서초구 남부순환로342길 100-9,37.47586661300768,127.02784501434732,08:30 ~ 18:00
양평서부점 블루핸즈,현대,고전압배터리 제외 전 작업 수리 가능,02-2675-8204,서울,영등포구 선유로 164,37.5282412286956,126.892216665994,08:30 ~ 17:30
역삼남부점 블루핸즈,현대,고전압배터리 제외 전 작업 수리 가능,02-555-8272,서울,강남구 봉은사로 234,37.5081847397077,127.037929875148,N
금남자동차공업사 블루핸즈,현대,고전압배터리 제외 전 작업 수리 가능,02-564-2500,세종특별자치시,금남면 용포로 112,36.4686992426816,127.281766973742,08:30 ~ 18:00
길동동부점 블루핸즈,현대,고전압배터리 제외 전 작업 수리 가능,02-485-5656,서울,강동구 명일로 195,37.53631089692639,127.14533172037974,08:30 ~ 18:00
난곡점 블루핸즈,현대,고전압배터리 제외 전 작업 수리 가능,02-856-8204,서울,관악구 난곡로 124-1,37.4663284451746,126.920447762921,N
남가좌동부점 블루핸즈,현대,고전압배터리 제외 전 작업 수리 가능,02-304-9434,서울,서대문구 모래내로 255,37.5763124943242,126.926724718388,08:30 ~ 18:00
녹번서부점 블루핸즈,현대,고전압배터리 제외 전 작업 수리 가능,02-354-8186,서울,은평구 통일로 661,37.60559980865994,126.93378540386516,N
녹번점 블루핸즈,현대,고전압배터리 제외 전 작업 수리 가능,02-389-0404,서울,은평구 진흥로 126,37.60734472861364,126.92430014115509,N
능동점 블루핸즈,현대,고전압배터리 제외 전 작업 수리 가능,02-444-3690,경기도,화성시 동탄구 동탄하나2길 10,37.21423951428361,127.06229064628614,08:30 ~ 18:30
답십리점 블루핸즈,현대,고전압배터리 제외 전 작업 수리 가능,02-2243-6614,서울,동대문구 답십리로 229,37.5729038565821,127.06593207013,N
당산점 블루핸즈,현대,고전압배터리 제외 전 작업 수리 가능,02-2671-6113,서울,영등포구 양평로24길 33,37.5411851365683,126.89335897256277,08:30 ~ 18:00
대림점 블루핸즈,현대,고전압배터리 제외 전 작업 수리 가능,02-831-0944,서울,영등포구 가마산로 374,37.501642090118864,126.89970089351624,08:30 ~ 18:00
대명자동차공업 블루핸즈,현대,고전압배터리 제외 전 작업 수리 가능,02-2292-0105,대구광역시,남구 봉덕로 32,35.84468238574973,128.59385506959455,09:00 ~ 18:00
대방점 블루핸즈,현대,고전압배터리 제외 전 작업 수리 가능,02-817-0015,서울,동작구 상도로 12,37.49973426331528,126.92183839150148,08:30 ~ 18:00
도곡점(주) 블루핸즈,현대,고전압배터리 제외 전 작업 수리 가능,02-3463-1988,서울,강남구 도곡로 158,37.49107124891617,127.0372393706092,08:30 ~ 18:00
도림점 블루핸즈,현대,고전압배터리 제외 전 작업 수리 가능,02-849-8272,서울,영등포구 도신로 115,37.508317253814845,126.9046797666894,08:30 ~ 18:00
도봉점 블루핸즈,현대,고전압배터리 제외 전 작업 수리 가능,02-931-8204,서울,도봉구 도봉로180길 83-6,37.6822803738028,127.05060194452,N
도화점 블루핸즈,현대,고전압배터리 제외 전 작업 수리 가능,02-717-7784,인천광역시,서구 방축로 335,37.4744545094252,126.680676241388,08:30 ~ 18:00
등촌점 블루핸즈,현대,고전압배터리 제외 전 작업 수리 가능,02-3664-7784,서울,강서구 공항대로59길 65,37.5546465202415,126.863220175803,08:30 ~ 18:00
롯데칠성음료신협양평분점 블루핸즈,현대,고전압배터리 제외 전 작업 수리 가능,02-2633-0771,서울,영등포구 양평로24길 33,37.5411851365683,126.89335897256277,08:30 ~ 18:00
면목동부점 블루핸즈,현대,고전압배터리 제외 전 작업 수리 가능,02-491-8272,서울,중랑구 동일로 596,37.5835736290485,127.080165924595,N
명일동부점 블루핸즈,현대,고전압배터리 제외 전 작업 수리 가능,02-442-7784,서울,강동구 상암로 295,37.54644254035794,127.1553116992879,08:30 ~ 18:00
명일점 블루핸즈,현대,고전압배터리 제외 전 작업 수리 가능,02-488-7784,서울,강동구 상암로 197,37.5466437112884,127.144469130493,N
목동서부점 블루핸즈,현대,고전압배터리 제외 전 작업 수리 가능,02-2653-7093,서울,양천구 등촌로 128,37.5414385592886,126.863801016274,N
목동점 블루핸즈,현대,고전압배터리 제외 전 작업 수리 가능,02-2642-8272,서울,양천구 등촌로 128,37.5414385592886,126.863801016274,N
문정점 블루핸즈,현대,고전압배터리 제외 전 작업 수리 가능,02-449-9021,서울,송파구 새말로 110,37.482599635892,127.126269167715,N
미아점 블루핸즈,현대,고전압배터리 제외 전 작업 수리 가능,02-945-8204,서울,강북구 솔샘로 303,37.6180986906571,127.026142312697,N
방배동부점 블루핸즈,현대,고전압배터리 제외 전 작업 수리 가능,02-3486-8204,서울,서초구 효령로 57,37.4794339232745,126.990720148428,N
방배중부점 블루핸즈,현대,고전압배터리 제외 전 작업 수리 가능,02-3487-8204,서울,서초구 서초대로 82,37.4867069221109,126.991470030882,N
방이점 블루핸즈,현대,고전압배터리 제외 전 작업 수리 가능,02-415-8272,서울,송파구 오금로27길 49,37.5102014902239,127.12068302299,08:30 ~ 18:00
방화점 블루핸즈,현대,고전압배터리 제외 전 작업 수리 가능,02-2662-8355,서울,강서구 양천로 59,37.57382990527163,126.81060094533365,08:30 ~ 19:00
북가좌점 블루핸즈,현대,고전압배터리 제외 전 작업 수리 가능,02-308-9993,서울,서대문구 수색로 145,37.575203822350986,126.90465004494514,N
불광점 블루핸즈,현대,고전압배터리 제외 전 작업 수리 가능,02-355-0404,서울,은평구 연서로 303,37.62282818460291,126.9271174612277,N
삼전점 블루핸즈,현대,고전압배터리 제외 전 작업 수리 가능,02-415-4900,서울,송파구 백제고분로39길 40,37.5077123077495,127.10326595514738,08:30 ~ 18:00
상계서부점 블루핸즈,현대,고전압배터리 제외 전 작업 수리 가능,02-930-8202,서울,노원구 수락산로 57,37.666967878294,127.070580623433,08:30 ~ 18:00
상도점 블루핸즈,현대,고전압배터리 제외 전 작업 수리 가능,02-822-4331,서울,동작구 상도로 386,37.4945625560816,126.954744816121,N
서울자동차서비스 블루핸즈,현대,고전압배터리 제외 전 작업 수리 가능,02-554-2085,서울,강남구 선릉로93길 46,37.5044341030205,127.04493090059,08:30 ~ 18:00
서초남부점 블루핸즈,현대,고전압배터리 제외 전 작업 수리 가능,02-593-7799,서울,서초구 서초대로53길 16,37.4956010305443,127.01494504763,08:30 ~ 18:00
서초동부점 블루핸즈,현대,고전압배터리 제외 전 작업 수리 가능,02-525-9797,서울,서초구 서초대로42길 55,37.4896260906859,127.009783160745,N
서초서부점 블루핸즈,현대,고전압배터리 제외 전 작업 수리 가능,02-585-8204,서울,서초구 서운로 14,37.4853879861067,127.029854366739,08:30 ~ 18:00
서초자동차공업(주) 블루핸즈,현대,고전압배터리 제외 전 작업 수리 가능,02-581-1221,서울,서초구 마방로 26,37.47480662689049,127.04148769354106,08:30 ~ 18:30
석촌점 블루핸즈,현대,고전압배터리 제외 전 작업 수리 가능,02-421-4087,서울,송파구 송파대로39길 6,37.5028252387093,127.108316780092,08:30 ~ 18:00
성내점 블루핸즈,현대,고전압배터리 제외 전 작업 수리 가능,02-475-2634,서울,강동구 성내로 92,37.5264459572507,127.129759544092,08:30 ~ 18:00
성북삼선교점 블루핸즈,현대,고전압배터리 제외 전 작업 수리 가능,02-763-8204,서울,성북구 성북로 38,37.5913168911643,127.003804449125,08:30 ~ 18:30
송파현대써비스(주),현대,고전압배터리 제외 전 작업 수리 가능,02-431-6586,서울,송파구 송이로32길 38,37.486844727116925,127.1266969316311,08:30 ~ 18:30
수유중부점 블루핸즈,현대,고전압배터리 제외 전 작업 수리 가능,02-933-8204,서울,강북구 인수봉로 183,37.6360521450621,127.012852241622,08:30 ~ 18:00
시흥남부점 블루핸즈,현대,고전압배터리 제외 전 작업 수리 가능,02-805-8204,경기도,광명시 범안로 649,37.4421935240778,126.845448700126,N
동대점 블루핸즈,현대,고전압배터리 제외 전 작업 수리 가능,041-936-8570,충청남도,보령시 신설2길 69,36.3516331169349,126.605824004615,N
두정점 블루핸즈,현대,고전압배터리 제외 전 작업 수리 가능,041-522-8204,충청남도,천안시 서북구 원두정8길 8,36.8324380293172,127.134272523637,N
둔포점 블루핸즈,현대,고전압배터리 제외 전 작업 수리 가능,041-531-3127,충청남도,아산시 둔포면 충무로 1853,36.9324632359977,127.04321456288,08:30 ~ 17:30
방축점(주) 블루핸즈,현대,고전압배터리 제외 전 작업 수리 가능,041-534-8204,충청남도,아산시 신정로 757,36.7841740700958,126.988567442887,N
배방점 블루핸즈,현대,고전압배터리 제외 전 작업 수리 가능,041-541-0831,충청남도,아산시 배방읍 북수로 108,36.773515580489,127.072786345211,N
병천점(주) 블루핸즈,현대,고전압배터리 제외 전 작업 수리 가능,041-561-8204,충청남도,천안시 동남구 병천면 충절로 1723,36.7637662897432,127.297165086185,N
삽교점 블루핸즈,현대,고전압배터리 제외 전 작업 수리 가능,041-338-3742,충청남도,예산군 삽교읍 윤봉길로 1577,36.690736240151,126.744955168684,N
성거점 블루핸즈,현대,고전압배터리 제외 전 작업 수리 가능,041-555-1222,충청남도,천안시 서북구 성거읍 봉주로 142,36.87776106295786,127.16226530748727,N
성환점 블루핸즈,현대,고전압배터리 제외 전 작업 수리 가능,041-582-4850,충청남도,천안시 서북구 성환읍 성환1로 69,36.90157044862,127.131153208675,08:00 ~ 18:00
신평점 블루핸즈,현대,고전압배터리 제외 전 작업 수리 가능,041-363-6070,부산광역시,사하구 하신중앙로 118,35.089763808827,128.965518042107,08:30 ~ 18:30
쌍용점 블루핸즈,현대,고전압배터리 제외 전 작업 수리 가능,041-576-8204,충청남도,천안시 서북구 월봉7길 39,36.7905954795237,127.115784864902,08:30 ~ 18:00
안면점 블루핸즈,현대,고전압배터리 제외 전 작업 수리 가능,041-673-4351,충청남도,태안군 안면읍 장터로 50-1,36.5144592089459,126.349849895084,08:30 ~ 18:30
